{"meta":{"code":200},"data":[{"id":8125,"name":"Kintamani Indonesian Restaurant","formatted_price":"~$45/pax","beyond_partner":true,"open_now":true,"location":{"city":"Singapore","country":"Singapore","state":"","street":"405 Havelock Road","address_2":"Level 3 Furama RiverFront Singapore","zipcode":"169633","latitude":1.2875625,"longitude":103.8359445,"neighbourhood":"Outram Park"},"avatar":{"url":"https://s3.burpple.com/venues/kintamani_logo-jpg_8125_original?1527827051","medium_url":"https://s3.burpple.com/venues/kintamani_logo-jpg_8125_medium?1527827051","small_url":"https://s3.burpple.com/venues/kintamani_logo-jpg_8125_small?1527827051"}},{"id":14473,"name":"Salt tapas & bar","formatted_price":"~$40/pax","beyond_partner":true,"open_now":true,"location":{"city":"Singapore","country":"Singapore","state":"","street":"252 North Bridge Road","address_2":"#01-22A Raffles City Shopping Centre","zipcode":"179103","latitude":1.294552,"longitude":103.853548,"neighbourhood":"City Hall"},"avatar":{"url":"https://s3.burpple.com/venues/salt_tapas_logo-jpg_14473_original?1528450494","medium_url":"https://s3.burpple.com/venues/salt_tapas_logo-jpg_14473_medium?1528450494","small_url":"https://s3.burpple.com/venues/salt_tapas_logo-jpg_14473_small?1528450494"}},{"id":191112,"name":"8 Korean BBQ (Shaw Centre)","formatted_price":"~$35/pax","beyond_partner":true,"open_now":true,"location":{"city":"Singapore","country":"Singapore","state":"","street":"1 Scotts Road","address_2":"#04-20/21 Shaw Centre","zipcode":"228208","latitude":1.3062164,"longitude":103.8317248,"neighbourhood":"Orchard"},"avatar":{"url":"https://s3.burpple.com/venues/8_bbq_logo-png_191112_original?1478237905","medium_url":"https://s3.burpple.com/venues/8_bbq_logo-png_191112_medium?1478237905","small_url":"https://s3.burpple.com/venues/8_bbq_logo-png_191112_small?1478237905"}},{"id":5016,"name":"Radici Italiane","formatted_price":"~$60/pax","beyond_partner":true,"open_now":true,"location":{"city":"Singapore","country":"Singapore","state":"","street":"27 Tanjong Pagar Road","address_2":"","zipcode":"088450","latitude":1.2793644,"longitude":103.8440569,"neighbourhood":"Tanjong Pagar"},"avatar":{"url":"https://s3.burpple.com/venues/radici_italiane_logo-jpg_5016_original?1527827710","medium_url":"https://s3.burpple.com/venues/radici_italiane_logo-jpg_5016_medium?1527827710","small_url":"https://s3.burpple.com/venues/radici_italiane_logo-jpg_5016_small?1527827710"}},{"id":39494,"name":"Sabio By The Sea","formatted_price":"~$60/pax","beyond_partner":true,"open_now":true,"location":{"city":"Singapore","country":"Singapore","state":"","street":"31 Ocean Way","address_2":"#01-02 Quayside Isle","zipcode":"098395","latitude":1.2471626,"longitude":103.8422839,"neighbourhood":"Sentosa"},"avatar":{"url":"https://s3.burpple.com/venues/sabio_logo-png_39494_original?1528950224","medium_url":"https://s3.burpple.com/venues/sabio_logo-png_39494_medium?1528950224","small_url":"https://s3.burpple.com/venues/sabio_logo-png_39494_small?1528950224"}},{"id":210561,"name":"HotPot Heroes","formatted_price":"~$30/pax","beyond_partner":true,"open_now":true,"location":{"city":"Singapore","country":"Singapore","state":"","street":"306 Tanjong Katong Road","address_2":"","zipcode":"437089","latitude":1.304835,"longitude":103.896188,"neighbourhood":"Tanjong Katong"},"avatar":{"url":"https://s3.burpple.com/venues/hotpot_heroes_logo-png_210561_original?1532012655","medium_url":"https://s3.burpple.com/venues/hotpot_heroes_logo-png_210561_medium?1532012655","small_url":"https://s3.burpple.com/venues/hotpot_heroes_logo-png_210561_small?1532012655"}},{"id":204622,"name":"Brew & Bar","formatted_price":"~$20/pax","beyond_partner":true,"open_now":true,"location":{"city":"Singapore","country":"Singapore","state":"","street":"6 Jalan Pari Burong","address_2":"","zipcode":"488672","latitude":1.3336012,"longitude":103.9480522,"neighbourhood":"Tanah Merah"},"avatar":{"url":"https://s3.burpple.com/venues/brew___bar_logo-jpg_204622_original?1531364880","medium_url":"https://s3.burpple.com/venues/brew___bar_logo-jpg_204622_medium?1531364880","small_url":"https://s3.burpple.com/venues/brew___bar_logo-jpg_204622_small?1531364880"}},{"id":204745,"name":"Xin Divine","formatted_price":"~$100/pax","beyond_partner":true,"open_now":true,"location":{"city":"Singapore","country":"Singapore","state":"","street":"10A Duxton Hill","address_2":"","zipcode":"089594","latitude":1.2791789,"longitude":103.8428005,"neighbourhood":"Tanjong Pagar"},"avatar":{"url":"https://s3.burpple.com/venues/logo-gold-blackbg-jpg_204745_original?1514527705","medium_url":"https://s3.burpple.com/venues/logo-gold-blackbg-jpg_204745_medium?1514527705","small_url":"https://s3.burpple.com/venues/logo-gold-blackbg-jpg_204745_small?1514527705"}},{"id":178986,"name":"Vatos Urban Tacos (South Beach)","formatted_price":"~$35/pax","beyond_partner":true,"open_now":true,"location":{"city":"Singapore","country":"Singapore","state":"","street":"36 Beach Road","address_2":"#01-03","zipcode":"189766","latitude":1.2957656,"longitude":103.8561785,"neighbourhood":"City Hall"},"avatar":{"url":"https://s3.burpple.com/venues/vatos_logo-png_178986_original?1462268946","medium_url":"https://s3.burpple.com/venues/vatos_logo-png_178986_medium?1462268946","small_url":"https://s3.burpple.com/venues/vatos_logo-png_178986_small?1462268946"}},{"id":209195,"name":"Maxi Coffee Bar","formatted_price":"~$10/pax","beyond_partner":true,"open_now":false,"location":{"city":"Singapore","country":"Singapore","state":"","street":"31 Club Street","address_2":"#01-02 Emerald Garden","zipcode":"069468","latitude":1.282349,"longitude":103.8463802,"neighbourhood":"Chinatown"},"avatar":{"url":"https://s3.burpple.com/venues/30821018_161374077891718_4213045115452820317_o-png_209195_original?1531808617","medium_url":"https://s3.burpple.com/venues/30821018_161374077891718_4213045115452820317_o-png_209195_medium?1531808617","small_url":"https://s3.burpple.com/venues/30821018_161374077891718_4213045115452820317_o-png_209195_small?1531808617"}},{"id":181635,"name":"Little House of Dreams (Dempsey)","formatted_price":"~$25/pax","beyond_partner":true,"open_now":true,"location":{"city":"Singapore","country":"Singapore","state":"","street":"8 Dempsey Road","address_2":"#01-14","zipcode":"247696","latitude":1.3042251,"longitude":103.8095057,"neighbourhood":"Dempsey"},"avatar":{"url":"https://s3.burpple.com/venues/lhod_logo-1-png_181635_original?1457664519","medium_url":"https://s3.burpple.com/venues/lhod_logo-1-png_181635_medium?1457664519","small_url":"https://s3.burpple.com/venues/lhod_logo-1-png_181635_small?1457664519"}},{"id":196295,"name":"Firebake - Woodfired Bakehouse & Restaurant","formatted_price":"~$50/pax","beyond_partner":true,"open_now":true,"location":{"city":"Singapore","country":"Singapore","state":"","street":"237 East Coast Road","address_2":"Level 1","zipcode":"428930","latitude":1.3077162,"longitude":103.9075305,"neighbourhood":"Marine Parade"},"avatar":{"url":"https://s3.burpple.com/venues/13603629_999584566757010_1577742771318546894_o-png_196295_original?1512916249","medium_url":"https://s3.burpple.com/venues/13603629_999584566757010_1577742771318546894_o-png_196295_medium?1512916249","small_url":"https://s3.burpple.com/venues/13603629_999584566757010_1577742771318546894_o-png_196295_small?1512916249"}},{"id":202081,"name":"Creamier (Tiong Bahru)","formatted_price":"~$5/pax","beyond_partner":true,"open_now":true,"location":{"city":"Singapore","country":"Singapore","state":"","street":"78 Yong Siak Street","address_2":"#01-18","zipcode":"163078","latitude":1.283044,"longitude":103.830248,"neighbourhood":"Tiong Bahru"},"avatar":{"url":"https://s3.burpple.com/venues/331016_197105800358414_35344623_o-jpg_202081_original?1527839960","medium_url":"https://s3.burpple.com/venues/331016_197105800358414_35344623_o-jpg_202081_medium?1527839960","small_url":"https://s3.burpple.com/venues/331016_197105800358414_35344623_o-jpg_202081_small?1527839960"}},{"id":210470,"name":"Monte Carlo Boys","formatted_price":"~$25/pax","beyond_partner":true,"open_now":true,"location":{"city":"Singapore","country":"Singapore","state":"","street":"42 Club Street","address_2":"","zipcode":"069420","latitude":1.2823184,"longitude":103.845949,"neighbourhood":"Tanjong Pagar"},"avatar":{"url":"https://s3.burpple.com/venues/18274756_733734363489018_3809763223955072521_n-jpg_210470_original?1531707042","medium_url":"https://s3.burpple.com/venues/18274756_733734363489018_3809763223955072521_n-jpg_210470_medium?1531707042","small_url":"https://s3.burpple.com/venues/18274756_733734363489018_3809763223955072521_n-jpg_210470_small?1531707042"}},{"id":201057,"name":"Upside Down Coffee Alternatives","formatted_price":"~$5/pax","beyond_partner":true,"open_now":false,"location":{"city":"Singapore","country":"Singapore","state":"","street":"115 Amoy Street","address_2":"","zipcode":"069935","latitude":1.2822536,"longitude":103.8476225,"neighbourhood":"Amoy Street"},"avatar":{"url":"https://s3.burpple.com/venues/32407991_1622877554496197_8761723005983260672_o-jpg_201057_original?1531726183","medium_url":"https://s3.burpple.com/venues/32407991_1622877554496197_8761723005983260672_o-jpg_201057_medium?1531726183","small_url":"https://s3.burpple.com/venues/32407991_1622877554496197_8761723005983260672_o-jpg_201057_small?1531726183"}},{"id":203071,"name":"Kindred Folk","formatted_price":"~$5/pax","beyond_partner":true,"open_now":true,"location":{"city":"Singapore","country":"Singapore","state":"","street":"9 King Albert Park","address_2":"#01-09 kap mall","zipcode":"598332","latitude":1.3366908,"longitude":103.7794608,"neighbourhood":"Bukit Timah"},"avatar":{"url":"https://s3.burpple.com/venues/kindred_folk_logo-jpg_203071_original?1509515363","medium_url":"https://s3.burpple.com/venues/kindred_folk_logo-jpg_203071_medium?1509515363","small_url":"https://s3.burpple.com/venues/kindred_folk_logo-jpg_203071_small?1509515363"}},{"id":29860,"name":"Kopi Tiam (Swissôtel The Stamford)","formatted_price":null,"beyond_partner":true,"open_now":true,"location":{"city":"Singapore","country":"Singapore","state":"","street":"2 Stamford Road","address_2":"Level 2 Swissôtel The Stamford","zipcode":"178882","latitude":1.2931519,"longitude":103.8534824,"neighbourhood":"City Hall"},"avatar":{"url":"https://s3.burpple.com/venues/kopitiam_logo_w_for_facebook-jpg_29860_original?1526521965","medium_url":"https://s3.burpple.com/venues/kopitiam_logo_w_for_facebook-jpg_29860_medium?1526521965","small_url":"https://s3.burpple.com/venues/kopitiam_logo_w_for_facebook-jpg_29860_small?1526521965"}},{"id":6629,"name":"Shin Minori (UE Square)","formatted_price":"~$50/pax","beyond_partner":true,"open_now":true,"location":{"city":"Singapore","country":"Singapore","state":"","street":"81 Clemenceau Avenue","address_2":"#03-15/16 UE Square","zipcode":"239917","latitude":1.2919904,"longitude":103.8427375,"neighbourhood":"Clarke Quay"},"avatar":{"url":"https://s3.burpple.com/venues/22491554_921110164703743_8955342854088761331_n-jpg_6629_original?1531449842","medium_url":"https://s3.burpple.com/venues/22491554_921110164703743_8955342854088761331_n-jpg_6629_medium?1531449842","small_url":"https://s3.burpple.com/venues/22491554_921110164703743_8955342854088761331_n-jpg_6629_small?1531449842"}},{"id":210354,"name":"Shin Minori (Katong Square)","formatted_price":"~$45/pax","beyond_partner":true,"open_now":true,"location":{"city":"Singapore","country":"Singapore","state":"","street":"88 East Coast Road","address_2":"#02-08 Katong Square","zipcode":"423371","latitude":1.3047271,"longitude":103.9046567,"neighbourhood":"Katong"},"avatar":{"url":"https://s3.burpple.com/venues/22491554_921110164703743_8955342854088761331_n-jpg_210354_original?1531376632","medium_url":"https://s3.burpple.com/venues/22491554_921110164703743_8955342854088761331_n-jpg_210354_medium?1531376632","small_url":"https://s3.burpple.com/venues/22491554_921110164703743_8955342854088761331_n-jpg_210354_small?1531376632"}},{"id":185182,"name":"NINJA BOWL","formatted_price":"~$20/pax","beyond_partner":true,"open_now":true,"location":{"city":"Singapore","country":"Singapore","state":"","street":"15 Duxton Road","address_2":"","zipcode":"089481","latitude":1.2797648,"longitude":103.8434239,"neighbourhood":"Tanjong Pagar"},"avatar":{"url":"https://s3.burpple.com/venues/ninja_bowl_logo_-_sixth_sense-jpg_185182_original?1475544633","medium_url":"https://s3.burpple.com/venues/ninja_bowl_logo_-_sixth_sense-jpg_185182_medium?1475544633","small_url":"https://s3.burpple.com/venues/ninja_bowl_logo_-_sixth_sense-jpg_185182_small?1475544633"}},{"id":210021,"name":"Q-WA Izakaya (Beach Road)","formatted_price":null,"beyond_partner":true,"open_now":true,"location":{"city":"Singapore","country":"Singapore","state":"","street":"103 Beach Road","address_2":"#01-02","zipcode":"189704","latitude":1.2978929,"longitude":103.8570701,"neighbourhood":"Bugis"},"avatar":{"url":"https://s3.burpple.com/venues/34873447_623161548043602_3883948263031701504_n-jpg_210021_original?1530517179","medium_url":"https://s3.burpple.com/venues/34873447_623161548043602_3883948263031701504_n-jpg_210021_medium?1530517179","small_url":"https://s3.burpple.com/venues/34873447_623161548043602_3883948263031701504_n-jpg_210021_small?1530517179"}},{"id":100642,"name":"Gem Bar","formatted_price":null,"beyond_partner":true,"open_now":true,"location":{"city":"Singapore","country":"Singapore","state":"","street":"10 Ann Siang Hill","address_2":"","zipcode":"069789","latitude":1.2814135,"longitude":103.8454703,"neighbourhood":"Tanjong Pagar"},"avatar":{"url":"https://s3.burpple.com/venues/logo-jpg_100642_original?1531359881","medium_url":"https://s3.burpple.com/venues/logo-jpg_100642_medium?1531359881","small_url":"https://s3.burpple.com/venues/logo-jpg_100642_small?1531359881"}},{"id":168312,"name":"Long Chim","formatted_price":"~$30/pax","beyond_partner":true,"open_now":true,"location":{"city":"Singapore","country":"Singapore","state":"","street":"10 Bayfront Avenue","address_2":"#02-02 The Shoppes at Marina Bay Sands Atrium 2","zipcode":"018955","latitude":1.2842303,"longitude":103.8593264,"neighbourhood":"Marina Bay"},"avatar":{"url":"https://s3.burpple.com/venues/long_chim_logo-jpg_168312_original?1528878385","medium_url":"https://s3.burpple.com/venues/long_chim_logo-jpg_168312_medium?1528878385","small_url":"https://s3.burpple.com/venues/long_chim_logo-jpg_168312_small?1528878385"}},{"id":173431,"name":"Park Bench Deli","formatted_price":"~$20/pax","beyond_partner":true,"open_now":true,"location":{"city":"Singapore","country":"Singapore","state":"","street":"179 Telok Ayer Street","address_2":"","zipcode":"068627","latitude":1.279826,"longitude":103.8473171,"neighbourhood":"Tanjong Pagar"},"avatar":{"url":"https://s3.burpple.com/venues/15844338_1070853669708294_4321640009478782905_o-png_173431_original?1527839814","medium_url":"https://s3.burpple.com/venues/15844338_1070853669708294_4321640009478782905_o-png_173431_medium?1527839814","small_url":"https://s3.burpple.com/venues/15844338_1070853669708294_4321640009478782905_o-png_173431_small?1527839814"}},{"id":203546,"name":"Pickleville","formatted_price":"~$10/pax","beyond_partner":true,"open_now":false,"location":{"city":"Singapore","country":"Singapore","state":"","street":"140 Robinson Road","address_2":"#04-00","zipcode":"068907","latitude":1.2783342,"longitude":103.8482807,"neighbourhood":"Tanjong Pagar"},"avatar":{"url":"https://s3.burpple.com/venues/pickleville_logo-png_203546_original?1527827486","medium_url":"https://s3.burpple.com/venues/pickleville_logo-png_203546_medium?1527827486","small_url":"https://s3.burpple.com/venues/pickleville_logo-png_203546_small?1527827486"}},{"id":170844,"name":"Afterwit - Mexican Taqueira","formatted_price":"~$25/pax","beyond_partner":true,"open_now":true,"location":{"city":"Singapore","country":"Singapore","state":"","street":"778 North Bridge Road","address_2":"","zipcode":"198746","latitude":1.303471,"longitude":103.859986,"neighbourhood":"Bugis"},"avatar":{"url":"https://s3.burpple.com/venues/afterwit_mex_burpple-jpg_170844_original?1449371639","medium_url":"https://s3.burpple.com/venues/afterwit_mex_burpple-jpg_170844_medium?1449371639","small_url":"https://s3.burpple.com/venues/afterwit_mex_burpple-jpg_170844_small?1449371639"}},{"id":210063,"name":"Chillas","formatted_price":"~$15/pax","beyond_partner":true,"open_now":true,"location":{"city":"Singapore","country":"Singapore","state":"","street":"1 Fusionopolis Place","address_2":"#02-03 Galaxis","zipcode":"138522","latitude":1.299559,"longitude":103.7879161,"neighbourhood":"One North"},"avatar":{"url":"https://s3.burpple.com/venues/logo_-3-png_210063_original?1530674376","medium_url":"https://s3.burpple.com/venues/logo_-3-png_210063_medium?1530674376","small_url":"https://s3.burpple.com/venues/logo_-3-png_210063_small?1530674376"}},{"id":210071,"name":"Philosophy Modern Fusion","formatted_price":"~$30/pax","beyond_partner":true,"open_now":true,"location":{"city":"Singapore","country":"Singapore","state":"","street":"20 Tanjong Pagar Road","address_2":"","zipcode":"088443","latitude":1.2799909,"longitude":103.8416435,"neighbourhood":"Tanjong Pagar"},"avatar":{"url":"https://s3.burpple.com/venues/32932028_168304813861667_8231738292358348800_n-png_210071_original?1530688174","medium_url":"https://s3.burpple.com/venues/32932028_168304813861667_8231738292358348800_n-png_210071_medium?1530688174","small_url":"https://s3.burpple.com/venues/32932028_168304813861667_8231738292358348800_n-png_210071_small?1530688174"}},{"id":210018,"name":"Crab in Da Bag ","formatted_price":"~$50/pax","beyond_partner":true,"open_now":true,"location":{"city":"Singapore","country":"Singapore","state":"","street":"1 Nassim Road","address_2":"#01-01","zipcode":"258458","latitude":1.3069012,"longitude":103.8265241,"neighbourhood":"Orchard"},"avatar":{"url":"https://s3.burpple.com/venues/10628172_908338659287780_7573865451351142673_n-png_210018_original?1530510078","medium_url":"https://s3.burpple.com/venues/10628172_908338659287780_7573865451351142673_n-png_210018_medium?1530510078","small_url":"https://s3.burpple.com/venues/10628172_908338659287780_7573865451351142673_n-png_210018_small?1530510078"}},{"id":199681,"name":"Wafuken (Downtown Gallery)","formatted_price":"~$15/pax","beyond_partner":true,"open_now":false,"location":{"city":"Singapore","country":"Singapore","state":"","street":"6A Shenton Way","address_2":"#02-23 Downtown Gallery","zipcode":"068815","latitude":1.2767434,"longitude":103.8482644,"neighbourhood":"Tanjong Pagar"},"avatar":{"url":"https://s3.burpple.com/venues/wafuken_logo_low_res__-png_199681_original?1499222350","medium_url":"https://s3.burpple.com/venues/wafuken_logo_low_res__-png_199681_medium?1499222350","small_url":"https://s3.burpple.com/venues/wafuken_logo_low_res__-png_199681_small?1499222350"}},{"id":30013,"name":"IndoChili (Zion Road)","formatted_price":"~$20/pax","beyond_partner":true,"open_now":true,"location":{"city":"Singapore","country":"Singapore","state":"","street":"54 Zion Road","address_2":"","zipcode":"247779","latitude":1.292934,"longitude":103.831197,"neighbourhood":"River Valley"},"avatar":{"url":"https://s3.burpple.com/venues/halal-indonesian-restaurant-singapore-png_30013_original?1527843698","medium_url":"https://s3.burpple.com/venues/halal-indonesian-restaurant-singapore-png_30013_medium?1527843698","small_url":"https://s3.burpple.com/venues/halal-indonesian-restaurant-singapore-png_30013_small?1527843698"}},{"id":188564,"name":"Four Points Eatery (Four Points by Sheraton Singapore, Riverview)","formatted_price":"~$60/pax","beyond_partner":true,"open_now":true,"location":{"city":"Singapore","country":"Singapore","state":"","street":"382 Havelock Road","address_2":"Level 1 Four Points by Sheraton Singapore, Riverview","zipcode":"169629","latitude":1.2891728,"longitude":103.836658,"neighbourhood":"Outram Park"},"avatar":{"url":"https://s3.burpple.com/venues/four_points_logo-jpg_188564_original?1527826774","medium_url":"https://s3.burpple.com/venues/four_points_logo-jpg_188564_medium?1527826774","small_url":"https://s3.burpple.com/venues/four_points_logo-jpg_188564_small?1527826774"}},{"id":203901,"name":"HAFUDOG ","formatted_price":"~$10/pax","beyond_partner":true,"open_now":true,"location":{"city":"Singapore","country":"Singapore","state":"","street":"35 Robinson Road","address_2":"#01-03","zipcode":"068876","latitude":1.2799728,"longitude":103.8497276,"neighbourhood":"Tanjong Pagar"},"avatar":{"url":"https://s3.burpple.com/venues/hafudog-jpg_203901_original?1530084091","medium_url":"https://s3.burpple.com/venues/hafudog-jpg_203901_medium?1530084091","small_url":"https://s3.burpple.com/venues/hafudog-jpg_203901_small?1530084091"}},{"id":209460,"name":"The Communal Restaurant Bar","formatted_price":"~$30/pax","beyond_partner":true,"open_now":true,"location":{"city":"Singapore","country":"Singapore","state":"","street":"3 King George's Avenue","address_2":"","zipcode":"208582","latitude":1.307308,"longitude":103.858887,"neighbourhood":"Lavender"},"avatar":{"url":"https://s3.burpple.com/venues/screen_shot_2018-06-14_at_3-13-32_pm_-1-png_209460_original?1529238264","medium_url":"https://s3.burpple.com/venues/screen_shot_2018-06-14_at_3-13-32_pm_-1-png_209460_medium?1529238264","small_url":"https://s3.burpple.com/venues/screen_shot_2018-06-14_at_3-13-32_pm_-1-png_209460_small?1529238264"}},{"id":20206,"name":"KPO Café Bar","formatted_price":"~$30/pax","beyond_partner":true,"open_now":true,"location":{"city":"Singapore","country":"Singapore","state":"","street":"1 Killiney Road","address_2":"Killiney Post Office","zipcode":"239518","latitude":1.300215,"longitude":103.8406515,"neighbourhood":"Somerset"},"avatar":{"url":"https://s3.burpple.com/venues/10849875_963911596970191_5664460695340036777_n-jpg_20206_original?1462515761","medium_url":"https://s3.burpple.com/venues/10849875_963911596970191_5664460695340036777_n-jpg_20206_medium?1462515761","small_url":"https://s3.burpple.com/venues/10849875_963911596970191_5664460695340036777_n-jpg_20206_small?1462515761"}},{"id":149405,"name":"Sunday Folks","formatted_price":"~$15/pax","beyond_partner":true,"open_now":true,"location":{"city":"Singapore","country":"Singapore","state":"","street":"44 Jalan Merah Saga","address_2":"#01-52 Chip Bee Gardens","zipcode":"278116","latitude":1.3116938,"longitude":103.7968144,"neighbourhood":"Holland"},"avatar":{"url":"https://s3.burpple.com/venues/20664938_1572375156159997_5588039755173878505_n-jpg_149405_original?1527839989","medium_url":"https://s3.burpple.com/venues/20664938_1572375156159997_5588039755173878505_n-jpg_149405_medium?1527839989","small_url":"https://s3.burpple.com/venues/20664938_1572375156159997_5588039755173878505_n-jpg_149405_small?1527839989"}},{"id":206070,"name":"Nipong Naepong (Jem)","formatted_price":"~$20/pax","beyond_partner":true,"open_now":true,"location":{"city":"Singapore","country":"Singapore","state":"","street":"50 Jurong Gateway Road","address_2":"#01-16 Jem","zipcode":"608549","latitude":1.3331285,"longitude":103.7433417,"neighbourhood":"Jurong East"},"avatar":{"url":"https://s3.burpple.com/venues/nipong_naepong-jpg_206070_original?1519207102","medium_url":"https://s3.burpple.com/venues/nipong_naepong-jpg_206070_medium?1519207102","small_url":"https://s3.burpple.com/venues/nipong_naepong-jpg_206070_small?1519207102"}},{"id":89222,"name":"Wan He Lou","formatted_price":"~$50/pax","beyond_partner":true,"open_now":true,"location":{"city":"Singapore","country":"Singapore","state":"","street":"65 Maude Road","address_2":"#01-01","zipcode":"208347","latitude":1.3080155,"longitude":103.8581502,"neighbourhood":"Jalan Besar"},"avatar":{"url":"https://s3.burpple.com/venues/logo-jpg_89222_original?1529475810","medium_url":"https://s3.burpple.com/venues/logo-jpg_89222_medium?1529475810","small_url":"https://s3.burpple.com/venues/logo-jpg_89222_small?1529475810"}},{"id":7887,"name":"The Square @ Furama","formatted_price":"~$70/pax","beyond_partner":true,"open_now":true,"location":{"city":"Singapore","country":"Singapore","state":"","street":"405 Havelock Road","address_2":"Level 2 Furama RiverFront Singapore","zipcode":"169633","latitude":1.287541,"longitude":103.8364239,"neighbourhood":"Outram Park"},"avatar":{"url":"https://s3.burpple.com/venues/the_square_logo-png_7887_original?1527828302","medium_url":"https://s3.burpple.com/venues/the_square_logo-png_7887_medium?1527828302","small_url":"https://s3.burpple.com/venues/the_square_logo-png_7887_small?1527828302"}},{"id":208584,"name":"The Bak Chor Mee Stall (Wild Market)","formatted_price":"~$5/pax","beyond_partner":true,"open_now":true,"location":{"city":"Singapore","country":"Singapore","state":"","street":"100 Beach Road","address_2":"#01-27/37 Shaw Towers Wild Market","zipcode":"189702","latitude":1.2965124,"longitude":103.8568162,"neighbourhood":"Bugis"},"avatar":{"url":"https://s3.burpple.com/venues/the_bcm-jpg_208584_original?1528787363","medium_url":"https://s3.burpple.com/venues/the_bcm-jpg_208584_medium?1528787363","small_url":"https://s3.burpple.com/venues/the_bcm-jpg_208584_small?1528787363"}},{"id":164886,"name":"Joo Bar","formatted_price":"~$40/pax","beyond_partner":true,"open_now":true,"location":{"city":"Singapore","country":"Singapore","state":"","street":"5 Tan Quee Lan Street","address_2":"","zipcode":"188094","latitude":1.2981019,"longitude":103.8569103,"neighbourhood":"Bugis"},"avatar":{"url":"https://s3.burpple.com/venues/joo_bar_logo-jpg_164886_original?1527827011","medium_url":"https://s3.burpple.com/venues/joo_bar_logo-jpg_164886_medium?1527827011","small_url":"https://s3.burpple.com/venues/joo_bar_logo-jpg_164886_small?1527827011"}},{"id":202814,"name":"The Bettership","formatted_price":"~$20/pax","beyond_partner":true,"open_now":true,"location":{"city":"Singapore","country":"Singapore","state":"","street":"2 Handy Road","address_2":"#01-03 The Cathay","zipcode":"229233","latitude":1.2993784,"longitude":103.8478027,"neighbourhood":"Dhoby Ghaut"},"avatar":{"url":"https://s3.burpple.com/venues/bettership_logo_-jpg_202814_original?1529393950","medium_url":"https://s3.burpple.com/venues/bettership_logo_-jpg_202814_medium?1529393950","small_url":"https://s3.burpple.com/venues/bettership_logo_-jpg_202814_small?1529393950"}},{"id":10,"name":"Paulaner Bräuhaus Singapore","formatted_price":"~$40/pax","beyond_partner":true,"open_now":true,"location":{"city":"Singapore","country":"Singapore","state":"","street":"9 Raffles Boulevard","address_2":"#01-01 Millenia Walk","zipcode":"039596","latitude":1.2930856,"longitude":103.8582883,"neighbourhood":"Millenia Walk"},"avatar":{"url":"https://s3.burpple.com/venues/bh_singapore_ext_port_ol_4c_page_1-jpg_10_original?1522840214","medium_url":"https://s3.burpple.com/venues/bh_singapore_ext_port_ol_4c_page_1-jpg_10_medium?1522840214","small_url":"https://s3.burpple.com/venues/bh_singapore_ext_port_ol_4c_page_1-jpg_10_small?1522840214"}},{"id":136924,"name":"Char (Jalan Besar)","formatted_price":"~$20/pax","beyond_partner":true,"open_now":true,"location":{"city":"Singapore","country":"Singapore","state":"","street":"363 Jalan Besar","address_2":"","zipcode":"208994","latitude":1.3126673,"longitude":103.8595535,"neighbourhood":"Farrer Park"},"avatar":{"url":"https://s3.burpple.com/venues/char_logo-jpg_136924_original?1527826355","medium_url":"https://s3.burpple.com/venues/char_logo-jpg_136924_medium?1527826355","small_url":"https://s3.burpple.com/venues/char_logo-jpg_136924_small?1527826355"}},{"id":55733,"name":"Window on the Park","formatted_price":null,"beyond_partner":true,"open_now":true,"location":{"city":"Singapore","country":"Singapore","state":"","street":"11 Cavenagh Road","address_2":"Level 2 Holiday Inn Singapore Orchard City Centre","zipcode":"229616","latitude":1.3023387,"longitude":103.8410264,"neighbourhood":"Somerset"},"avatar":{"url":"https://s3.burpple.com/venues/woplogo-jpg_55733_original?1462850103","medium_url":"https://s3.burpple.com/venues/woplogo-jpg_55733_medium?1462850103","small_url":"https://s3.burpple.com/venues/woplogo-jpg_55733_small?1462850103"}},{"id":194397,"name":"Wild Bar (Wild Market)","formatted_price":null,"beyond_partner":true,"open_now":true,"location":{"city":"Singapore","country":"Singapore","state":"","street":"100 Beach Road","address_2":"#01-36/37 Shaw Towers Wild Market","zipcode":"189702","latitude":1.2959942,"longitude":103.8572319,"neighbourhood":"Beach Road"},"avatar":{"url":"https://s3.burpple.com/venues/wildbar_logo-png_194397_original?1528783825","medium_url":"https://s3.burpple.com/venues/wildbar_logo-png_194397_medium?1528783825","small_url":"https://s3.burpple.com/venues/wildbar_logo-png_194397_small?1528783825"}},{"id":173178,"name":"Wafuken (Asia Square)","formatted_price":"~$15/pax","beyond_partner":true,"open_now":false,"location":{"city":"Singapore","country":"Singapore","state":"","street":"12 Marina View","address_2":"#02-05 Asia Square Tower 2","zipcode":"018961","latitude":1.2780969,"longitude":103.850951,"neighbourhood":"Marina Bay"},"avatar":{"url":"https://s3.burpple.com/venues/wafuken_logo_hi_res_-jpg_173178_original?1499242017","medium_url":"https://s3.burpple.com/venues/wafuken_logo_hi_res_-jpg_173178_medium?1499242017","small_url":"https://s3.burpple.com/venues/wafuken_logo_hi_res_-jpg_173178_small?1499242017"}},{"id":208256,"name":"Farms & Fables","formatted_price":"~$20/pax","beyond_partner":true,"open_now":true,"location":{"city":"Singapore","country":"Singapore","state":"","street":"2 Science Park Drive","address_2":"#01-27 Savourworld","zipcode":"118222","latitude":1.2906655,"longitude":103.7849502,"neighbourhood":"Kent Ridge"},"avatar":{"url":"https://s3.burpple.com/venues/farms___fables_logo-png_208256_original?1527826628","medium_url":"https://s3.burpple.com/venues/farms___fables_logo-png_208256_medium?1527826628","small_url":"https://s3.burpple.com/venues/farms___fables_logo-png_208256_small?1527826628"}},{"id":166968,"name":"Chir Chir Fusion Chicken Factory (313@Somerset)","formatted_price":"~$30/pax","beyond_partner":true,"open_now":true,"location":{"city":"Singapore","country":"Singapore","state":null,"street":"313 Orchard Road","address_2":"#B3-04/05/06 313@Somerset","zipcode":"238895","latitude":1.301313,"longitude":103.838154,"neighbourhood":"Somerset"},"avatar":{"url":"https://s3.burpple.com/venues/10168091_1567245393511937_7730151677617404808_n-jpg_166968_original?1527669623","medium_url":"https://s3.burpple.com/venues/10168091_1567245393511937_7730151677617404808_n-jpg_166968_medium?1527669623","small_url":"https://s3.burpple.com/venues/10168091_1567245393511937_7730151677617404808_n-jpg_166968_small?1527669623"}},{"id":201302,"name":"Founder Bak Kut Teh (Bugis)","formatted_price":"~$10/pax","beyond_partner":true,"open_now":true,"location":{"city":"Singapore","country":"Singapore","state":"","street":"530 North Bridge Road","address_2":"#01-01","zipcode":"188747","latitude":1.298958,"longitude":103.8559329,"neighbourhood":"Bugis"},"avatar":{"url":"https://s3.burpple.com/venues/fbkt_logo-jpg_201302_original?1527820371","medium_url":"https://s3.burpple.com/venues/fbkt_logo-jpg_201302_medium?1527820371","small_url":"https://s3.burpple.com/venues/fbkt_logo-jpg_201302_small?1527820371"}},{"id":108941,"name":"Guo Fu Steamboat 国府珍锅","formatted_price":"~$25/pax","beyond_partner":true,"open_now":true,"location":{"city":"Singapore","country":"Singapore","state":"","street":"20 Cross Street","address_2":"#01-31/32/33 China Court","zipcode":"048422","latitude":1.283678,"longitude":103.847692,"neighbourhood":"Raffles Place"},"avatar":{"url":"https://s3.burpple.com/venues/guo_fu_logo-png_108941_original?1527054628","medium_url":"https://s3.burpple.com/venues/guo_fu_logo-png_108941_medium?1527054628","small_url":"https://s3.burpple.com/venues/guo_fu_logo-png_108941_small?1527054628"}},{"id":189348,"name":"Chir Chir Fusion Chicken Factory (Jem)","formatted_price":"~$30/pax","beyond_partner":true,"open_now":true,"location":{"city":"Singapore","country":"Singapore","state":"","street":"50 Jurong Gateway Road","address_2":"#04-13/14 Jem","zipcode":"608549","latitude":1.3335963,"longitude":103.7432702,"neighbourhood":"Jurong East"},"avatar":{"url":"https://s3.burpple.com/venues/10168091_1567245393511937_7730151677617404808_n-jpg_189348_original?1527669645","medium_url":"https://s3.burpple.com/venues/10168091_1567245393511937_7730151677617404808_n-jpg_189348_medium?1527669645","small_url":"https://s3.burpple.com/venues/10168091_1567245393511937_7730151677617404808_n-jpg_189348_small?1527669645"}},{"id":111213,"name":"Urban Bites","formatted_price":"~$25/pax","beyond_partner":true,"open_now":true,"location":{"city":"Singapore","country":"Singapore","state":"","street":"161 Telok Ayer Street","address_2":"","zipcode":"068615","latitude":1.280292,"longitude":103.84747,"neighbourhood":"Tanjong Pagar"},"avatar":{"url":"https://s3.burpple.com/venues/22007910_1475974435771369_1383056961754188901_n-png_111213_original?1528354785","medium_url":"https://s3.burpple.com/venues/22007910_1475974435771369_1383056961754188901_n-png_111213_medium?1528354785","small_url":"https://s3.burpple.com/venues/22007910_1475974435771369_1383056961754188901_n-png_111213_small?1528354785"}},{"id":165206,"name":"Froth","formatted_price":"~$30/pax","beyond_partner":true,"open_now":true,"location":{"city":"Singapore","country":"Singapore","state":"","street":"2 Finlayson Green","address_2":"Level 2","zipcode":"049247","latitude":1.2819782,"longitude":103.8516656,"neighbourhood":"Raffles Place"},"avatar":{"url":"https://s3.burpple.com/venues/fb_logo_copy-jpg_165206_original?1463023347","medium_url":"https://s3.burpple.com/venues/fb_logo_copy-jpg_165206_medium?1463023347","small_url":"https://s3.burpple.com/venues/fb_logo_copy-jpg_165206_small?1463023347"}},{"id":31283,"name":"The Sushi Bar (Far East Plaza)","formatted_price":"~$35/pax","beyond_partner":true,"open_now":true,"location":{"city":"Singapore","country":"Singapore","state":"","street":"14 Scotts Road","address_2":"#04-28 Far East Plaza","zipcode":"228213","latitude":1.3069762,"longitude":103.833654,"neighbourhood":"Orchard"},"avatar":{"url":"https://s3.burpple.com/venues/sushibar-jpg_31283_original?1403499026","medium_url":"https://s3.burpple.com/venues/sushibar-jpg_31283_medium?1403499026","small_url":"https://s3.burpple.com/venues/sushibar-jpg_31283_small?1403499026"}},{"id":119287,"name":"Wheeler's Yard","formatted_price":"~$25/pax","beyond_partner":true,"open_now":true,"location":{"city":"Singapore","country":"Singapore","state":"","street":"28 Lorong Ampas","address_2":"","zipcode":"328781","latitude":1.326623,"longitude":103.852831,"neighbourhood":"Balestier"},"avatar":{"url":"https://s3.burpple.com/venues/untitled-1-png_119287_original?1527213899","medium_url":"https://s3.burpple.com/venues/untitled-1-png_119287_medium?1527213899","small_url":"https://s3.burpple.com/venues/untitled-1-png_119287_small?1527213899"}},{"id":202678,"name":"Superfudo","formatted_price":"~$15/pax","beyond_partner":true,"open_now":true,"location":{"city":"Singapore","country":"Singapore","state":"","street":"15 Lorong Liput","address_2":"Holland Village","zipcode":"277730","latitude":1.3104961,"longitude":103.7951847,"neighbourhood":"Holland"},"avatar":{"url":"https://s3.burpple.com/venues/fuperfudo-jpg_202678_original?1529399525","medium_url":"https://s3.burpple.com/venues/fuperfudo-jpg_202678_medium?1529399525","small_url":"https://s3.burpple.com/venues/fuperfudo-jpg_202678_small?1529399525"}},{"id":194276,"name":"Atmastel","formatted_price":"~$50/pax","beyond_partner":true,"open_now":true,"location":{"city":"Singapore","country":"Singapore","state":"","street":"26 Beach Road","address_2":"#B1-22 South Beach Avenue","zipcode":"189768","latitude":1.294295,"longitude":103.855595,"neighbourhood":"City Hall"},"avatar":{"url":"https://s3.burpple.com/venues/21765580_1913932982179244_3659295497122293053_o-jpg_194276_original?1528172278","medium_url":"https://s3.burpple.com/venues/21765580_1913932982179244_3659295497122293053_o-jpg_194276_medium?1528172278","small_url":"https://s3.burpple.com/venues/21765580_1913932982179244_3659295497122293053_o-jpg_194276_small?1528172278"}},{"id":192830,"name":"Small Potatoes Ice Creamery (313@Somerset)","formatted_price":"~$5/pax","beyond_partner":true,"open_now":true,"location":{"city":"Singapore","country":"Singapore","state":"","street":"313 Orchard Road","address_2":"#B3-48 313@Somerset","zipcode":"238895","latitude":1.3003613,"longitude":103.8388213,"neighbourhood":"Somerset"},"avatar":{"url":"https://s3.burpple.com/venues/small_potatoes_logo-jpg_192830_original?1527827861","medium_url":"https://s3.burpple.com/venues/small_potatoes_logo-jpg_192830_medium?1527827861","small_url":"https://s3.burpple.com/venues/small_potatoes_logo-jpg_192830_small?1527827861"}},{"id":208004,"name":"Al Borgo (Namly)","formatted_price":"~$40/pax","beyond_partner":true,"open_now":true,"location":{"city":"Singapore","country":"Singapore","state":"","street":"41 Namly Avenue","address_2":"Level 3 SIM Management House","zipcode":"267616","latitude":1.3259884,"longitude":103.7999822,"neighbourhood":"Bukit Timah"},"avatar":{"url":"https://s3.burpple.com/venues/13001151_10153950494871628_4554283777061838748_n-jpg_208004_original?1527839868","medium_url":"https://s3.burpple.com/venues/13001151_10153950494871628_4554283777061838748_n-jpg_208004_medium?1527839868","small_url":"https://s3.burpple.com/venues/13001151_10153950494871628_4554283777061838748_n-jpg_208004_small?1527839868"}},{"id":61868,"name":"Hooters (Clarke Quay)","formatted_price":"~$35/pax","beyond_partner":true,"open_now":true,"location":{"city":"Singapore","country":"Singapore","state":"","street":"3D River Valley Road","address_2":"#01-03 Clarke Quay","zipcode":"179023","latitude":1.2899748,"longitude":103.8459487,"neighbourhood":"Clarke Quay"},"avatar":{"url":"https://s3.burpple.com/venues/10368979_10152656705941450_461879669625437490_o-jpg_61868_original?1527840129","medium_url":"https://s3.burpple.com/venues/10368979_10152656705941450_461879669625437490_o-jpg_61868_medium?1527840129","small_url":"https://s3.burpple.com/venues/10368979_10152656705941450_461879669625437490_o-jpg_61868_small?1527840129"}},{"id":204887,"name":"MYO restobar","formatted_price":"~$25/pax","beyond_partner":true,"open_now":true,"location":{"city":"Singapore","country":"Singapore","state":"","street":"138 Robinson Road","address_2":"#19-01 Oxley Tower","zipcode":"068906","latitude":1.2784458,"longitude":103.848261,"neighbourhood":"Tanjong Pagar"},"avatar":{"url":"https://s3.burpple.com/venues/24131322_2038501519730534_3747076919434977503_n-jpg_204887_original?1527843761","medium_url":"https://s3.burpple.com/venues/24131322_2038501519730534_3747076919434977503_n-jpg_204887_medium?1527843761","small_url":"https://s3.burpple.com/venues/24131322_2038501519730534_3747076919434977503_n-jpg_204887_small?1527843761"}},{"id":208170,"name":"Scissors Paper Stove","formatted_price":"~$25/pax","beyond_partner":true,"open_now":true,"location":{"city":"Singapore","country":"Singapore","state":"","street":"9 Teck Chye Terrace","address_2":null,"zipcode":"545720","latitude":1.3531237,"longitude":103.876602,"neighbourhood":"Serangoon"},"avatar":{"url":"https://s3.burpple.com/venues/30052134_432942230497717_8367715874264413460_o_-1-jpg_208170_original?1528079051","medium_url":"https://s3.burpple.com/venues/30052134_432942230497717_8367715874264413460_o_-1-jpg_208170_medium?1528079051","small_url":"https://s3.burpple.com/venues/30052134_432942230497717_8367715874264413460_o_-1-jpg_208170_small?1528079051"}},{"id":1321,"name":"Creamier (Toa Payoh)","formatted_price":"~$5/pax","beyond_partner":true,"open_now":true,"location":{"city":"Singapore","country":"Singapore","state":"","street":"128 Lorong 1 Toa Payoh","address_2":"#01-835","zipcode":"310128","latitude":1.3379959,"longitude":103.8444058,"neighbourhood":"Toa Payoh"},"avatar":{"url":"https://s3.burpple.com/venues/331016_197105800358414_35344623_o-jpg_1321_original?1527839973","medium_url":"https://s3.burpple.com/venues/331016_197105800358414_35344623_o-jpg_1321_medium?1527839973","small_url":"https://s3.burpple.com/venues/331016_197105800358414_35344623_o-jpg_1321_small?1527839973"}},{"id":183514,"name":"Creamier (Gillman Barracks)","formatted_price":"~$5/pax","beyond_partner":true,"open_now":true,"location":{"city":"Singapore","country":"Singapore","state":"","street":"5A Lock Road","address_2":"Gillman Barracks","zipcode":"108927","latitude":1.277505,"longitude":103.803944,"neighbourhood":"Alexandra"},"avatar":{"url":"https://s3.burpple.com/venues/331016_197105800358414_35344623_o-jpg_183514_original?1527839967","medium_url":"https://s3.burpple.com/venues/331016_197105800358414_35344623_o-jpg_183514_medium?1527839967","small_url":"https://s3.burpple.com/venues/331016_197105800358414_35344623_o-jpg_183514_small?1527839967"}},{"id":169935,"name":"British Indian Curry Hut","formatted_price":"~$20/pax","beyond_partner":true,"open_now":true,"location":{"city":"Singapore","country":"Singapore","state":"","street":"30 Lorong Mambong","address_2":"","zipcode":"277688","latitude":1.3117305,"longitude":103.7947156,"neighbourhood":"Holland"},"avatar":{"url":"https://s3.burpple.com/venues/logo-png_169935_original?1511266909","medium_url":"https://s3.burpple.com/venues/logo-png_169935_medium?1511266909","small_url":"https://s3.burpple.com/venues/logo-png_169935_small?1511266909"}},{"id":204495,"name":"IndoChili (Savourworld)","formatted_price":"~$20/pax","beyond_partner":true,"open_now":true,"location":{"city":"Singapore","country":"Singapore","state":"","street":"2 Science Park Drive","address_2":"#01-09 Savourworld","zipcode":"118222","latitude":1.2906655,"longitude":103.7849502,"neighbourhood":"Kent Ridge"},"avatar":{"url":"https://s3.burpple.com/venues/halal-indonesian-restaurant-singapore-png_204495_original?1527843632","medium_url":"https://s3.burpple.com/venues/halal-indonesian-restaurant-singapore-png_204495_medium?1527843632","small_url":"https://s3.burpple.com/venues/halal-indonesian-restaurant-singapore-png_204495_small?1527843632"}},{"id":203439,"name":"Uni Gallery by OosterBay","formatted_price":"~$40/pax","beyond_partner":true,"open_now":true,"location":{"city":"Singapore","country":"Singapore","state":"","street":"7500A Beach Road","address_2":"#B1-310 The Plaza","zipcode":"199591","latitude":1.2998004,"longitude":103.8605856,"neighbourhood":"Beach Road"},"avatar":{"url":"https://s3.burpple.com/venues/22859773_1504883359590405_6970955406114925733_o-jpg_203439_original?1527844046","medium_url":"https://s3.burpple.com/venues/22859773_1504883359590405_6970955406114925733_o-jpg_203439_medium?1527844046","small_url":"https://s3.burpple.com/venues/22859773_1504883359590405_6970955406114925733_o-jpg_203439_small?1527844046"}},{"id":194065,"name":"The Coffee Academics (Raffles City)","formatted_price":"~$30/pax","beyond_partner":true,"open_now":true,"location":{"city":"Singapore","country":"Singapore","state":"","street":"252 North Bridge Road","address_2":"#B1-12 Raffles City Shopping Centre","zipcode":"179103","latitude":1.2936217,"longitude":103.8539237,"neighbourhood":"City Hall"},"avatar":{"url":"https://s3.burpple.com/venues/12241245_142020336162562_4889140611300226445_n-png_194065_original?1527843910","medium_url":"https://s3.burpple.com/venues/12241245_142020336162562_4889140611300226445_n-png_194065_medium?1527843910","small_url":"https://s3.burpple.com/venues/12241245_142020336162562_4889140611300226445_n-png_194065_small?1527843910"}},{"id":179964,"name":"The Coffee Academics (Scotts Square)","formatted_price":"~$30/pax","beyond_partner":true,"open_now":true,"location":{"city":"Singapore","country":"Singapore","state":"","street":"6 Scotts Road","address_2":"#02-01/02 Scotts Square","zipcode":"228209","latitude":1.3060907,"longitude":103.8329104,"neighbourhood":"Orchard"},"avatar":{"url":"https://s3.burpple.com/venues/12241245_142020336162562_4889140611300226445_n-png_179964_original?1527843916","medium_url":"https://s3.burpple.com/venues/12241245_142020336162562_4889140611300226445_n-png_179964_medium?1527843916","small_url":"https://s3.burpple.com/venues/12241245_142020336162562_4889140611300226445_n-png_179964_small?1527843916"}},{"id":191573,"name":"Little Bastard","formatted_price":"~$45/pax","beyond_partner":true,"open_now":true,"location":{"city":"Singapore","country":"Singapore","state":null,"street":"115 King George's Avenue","address_2":"#02-02","zipcode":"208561","latitude":1.3106969,"longitude":103.8621731,"neighbourhood":"Lavender"},"avatar":{"url":"https://s3.burpple.com/venues/littlebastardsg_logo-jpg_191573_original?1480803035","medium_url":"https://s3.burpple.com/venues/littlebastardsg_logo-jpg_191573_medium?1480803035","small_url":"https://s3.burpple.com/venues/littlebastardsg_logo-jpg_191573_small?1480803035"}},{"id":127058,"name":"SONS","formatted_price":"~$25/pax","beyond_partner":true,"open_now":true,"location":{"city":"Singapore","country":"Singapore","state":"","street":"20 Cross Street","address_2":"#01-19 China Square Central","zipcode":"048422","latitude":1.2841,"longitude":103.8473925,"neighbourhood":"Raffles Place"},"avatar":{"url":"https://s3.burpple.com/venues/fb_profile_pic-01-png_127058_original?1400122201","medium_url":"https://s3.burpple.com/venues/fb_profile_pic-01-png_127058_medium?1400122201","small_url":"https://s3.burpple.com/venues/fb_profile_pic-01-png_127058_small?1400122201"}},{"id":208949,"name":"Benjamin Barker Cafe","formatted_price":"~$25/pax","beyond_partner":true,"open_now":true,"location":{"city":"Singapore","country":"Singapore","state":"","street":"8 Grange Road","address_2":"#01-01/02 Cathay Cineleisure Orchard","zipcode":"239695","latitude":1.301527,"longitude":103.8363441,"neighbourhood":"Somerset"},"avatar":{"url":"https://s3.burpple.com/venues/bb-cafe-logo-navy-png_208949_original?1528172206","medium_url":"https://s3.burpple.com/venues/bb-cafe-logo-navy-png_208949_medium?1528172206","small_url":"https://s3.burpple.com/venues/bb-cafe-logo-navy-png_208949_small?1528172206"}},{"id":187763,"name":"LongQing 隆庆","formatted_price":"~$40/pax","beyond_partner":true,"open_now":true,"location":{"city":"Singapore","country":"Singapore","state":"","street":"18 Hong Kong Street","address_2":"","zipcode":"059661","latitude":1.287759,"longitude":103.847254,"neighbourhood":"Clarke Quay"},"avatar":{"url":"https://s3.burpple.com/venues/image-jpeg_187763_original?1465956937","medium_url":"https://s3.burpple.com/venues/image-jpeg_187763_medium?1465956937","small_url":"https://s3.burpple.com/venues/image-jpeg_187763_small?1465956937"}},{"id":121399,"name":"Tolido's Espresso Nook","formatted_price":"~$20/pax","beyond_partner":true,"open_now":false,"location":{"city":"Singapore","country":"Singapore","state":"","street":"462 Crawford Lane","address_2":"#01-63","zipcode":"190462","latitude":1.3045459,"longitude":103.8608284,"neighbourhood":"Lavender"},"avatar":{"url":"https://s3.burpple.com/venues/logo_-black_registered-jpg_121399_original?1528116514","medium_url":"https://s3.burpple.com/venues/logo_-black_registered-jpg_121399_medium?1528116514","small_url":"https://s3.burpple.com/venues/logo_-black_registered-jpg_121399_small?1528116514"}},{"id":206071,"name":"NY Night Market","formatted_price":null,"beyond_partner":true,"open_now":true,"location":{"city":"Singapore","country":"Singapore","state":"","street":"3 Gateway Drive","address_2":"#01-08 Westgate","zipcode":"608532","latitude":1.3343302,"longitude":103.7428132,"neighbourhood":"Jurong East"},"avatar":{"url":"https://s3.burpple.com/venues/ny_night_market-jpg_206071_original?1519206913","medium_url":"https://s3.burpple.com/venues/ny_night_market-jpg_206071_medium?1519206913","small_url":"https://s3.burpple.com/venues/ny_night_market-jpg_206071_small?1519206913"}},{"id":208168,"name":"The Dark Gallery (Takashimaya)","formatted_price":"~$10/pax","beyond_partner":true,"open_now":true,"location":{"city":"Singapore","country":"Singapore","state":null,"street":"391 Orchard Road","address_2":"#B2-29 Ngee Ann City","zipcode":"238872","latitude":1.3031884,"longitude":103.8341773,"neighbourhood":"Orchard"},"avatar":{"url":"https://s3.burpple.com/venues/the_dark_gallery_logo-png_208168_original?1529041546","medium_url":"https://s3.burpple.com/venues/the_dark_gallery_logo-png_208168_medium?1529041546","small_url":"https://s3.burpple.com/venues/the_dark_gallery_logo-png_208168_small?1529041546"}},{"id":111690,"name":"Tandoor","formatted_price":null,"beyond_partner":true,"open_now":true,"location":{"city":"Singapore","country":"Singapore","state":"","street":"11 Cavenagh Road","address_2":"Basement 1 Holiday Inn Singapore Orchard City Centre","zipcode":"229616","latitude":1.3023387,"longitude":103.8410264,"neighbourhood":"Somerset"},"avatar":{"url":"https://s3.burpple.com/venues/tandoorlogo-jpg_111690_original?1462850417","medium_url":"https://s3.burpple.com/venues/tandoorlogo-jpg_111690_medium?1462850417","small_url":"https://s3.burpple.com/venues/tandoorlogo-jpg_111690_small?1462850417"}},{"id":175513,"name":"Kaw Kaw SG ","formatted_price":"~$20/pax","beyond_partner":true,"open_now":true,"location":{"city":"Singapore","country":"Singapore","state":"","street":"28 Aliwal Street","address_2":"#01-01 Aliwal Art Centre","zipcode":"199918","latitude":1.3026293,"longitude":103.861026,"neighbourhood":"Bugis"},"avatar":{"url":"https://s3.burpple.com/venues/kawkawsg_logo1-png_175513_original?1453784290","medium_url":"https://s3.burpple.com/venues/kawkawsg_logo1-png_175513_medium?1453784290","small_url":"https://s3.burpple.com/venues/kawkawsg_logo1-png_175513_small?1453784290"}},{"id":202386,"name":"52 Sandwich Shack","formatted_price":"~$10/pax","beyond_partner":true,"open_now":true,"location":{"city":"Singapore","country":"Singapore","state":"","street":"252 North Bridge Road","address_2":"#B1-54 Raffles City","zipcode":"179103","latitude":1.2939468,"longitude":103.8533486,"neighbourhood":"City Hall"},"avatar":{"url":"https://s3.burpple.com/venues/52ss_logos_01-png_202386_original?1527064252","medium_url":"https://s3.burpple.com/venues/52ss_logos_01-png_202386_medium?1527064252","small_url":"https://s3.burpple.com/venues/52ss_logos_01-png_202386_small?1527064252"}},{"id":198770,"name":"Santap","formatted_price":"~$20/pax","beyond_partner":true,"open_now":true,"location":{"city":"Singapore","country":"Singapore","state":"","street":"16 Madras Street","address_2":"The Daulat","zipcode":"208413","latitude":1.3047445,"longitude":103.8528076,"neighbourhood":"Little India"},"avatar":{"url":"https://s3.burpple.com/venues/santap_500x500-png_198770_original?1513578994","medium_url":"https://s3.burpple.com/venues/santap_500x500-png_198770_medium?1513578994","small_url":"https://s3.burpple.com/venues/santap_500x500-png_198770_small?1513578994"}},{"id":208597,"name":"SG TAPS","formatted_price":null,"beyond_partner":true,"open_now":true,"location":{"city":"Singapore","country":"Singapore","state":"","street":"13 Duxton Hill","address_2":"#01-01","zipcode":"089597","latitude":1.2791378,"longitude":103.8427163,"neighbourhood":"Tanjong Pagar"},"avatar":{"url":"https://s3.burpple.com/venues/red-cmyk-small_jpg-jpg_208597_original?1528694158","medium_url":"https://s3.burpple.com/venues/red-cmyk-small_jpg-jpg_208597_medium?1528694158","small_url":"https://s3.burpple.com/venues/red-cmyk-small_jpg-jpg_208597_small?1528694158"}},{"id":19034,"name":"Szechuan Court & Kitchen (Fairmont Singapore)","formatted_price":"~$55/pax","beyond_partner":true,"open_now":true,"location":{"city":"Singapore","country":"Singapore","state":"","street":"80 Bras Basah Road","address_2":"Level 3 Fairmont Singapore","zipcode":"189560","latitude":1.2939573,"longitude":103.8540579,"neighbourhood":"City Hall"},"avatar":{"url":"https://s3.burpple.com/venues/szechuan_logo-jpg_19034_original?1527828006","medium_url":"https://s3.burpple.com/venues/szechuan_logo-jpg_19034_medium?1527828006","small_url":"https://s3.burpple.com/venues/szechuan_logo-jpg_19034_small?1527828006"}},{"id":208002,"name":"The Stamford Brasserie","formatted_price":"~$20/pax","beyond_partner":true,"open_now":true,"location":{"city":"Singapore","country":"Singapore","state":"","street":"2 Stamford Road","address_2":"Level 1 Swissôtel The Stamford","zipcode":"178882","latitude":1.2933597,"longitude":103.8531036,"neighbourhood":"City Hall"},"avatar":{"url":"https://s3.burpple.com/venues/the_stamford_brasserie_logo_revised-jpg_208002_original?1526543944","medium_url":"https://s3.burpple.com/venues/the_stamford_brasserie_logo_revised-jpg_208002_medium?1526543944","small_url":"https://s3.burpple.com/venues/the_stamford_brasserie_logo_revised-jpg_208002_small?1526543944"}},{"id":202088,"name":"aRoma (Arab Street)","formatted_price":"~$5/pax","beyond_partner":true,"open_now":true,"location":{"city":"Singapore","country":"Singapore","state":"","street":"29 Arab Street","address_2":"","zipcode":"199728","latitude":1.30065,"longitude":103.8595349,"neighbourhood":"Bugis"},"avatar":{"url":"https://s3.burpple.com/venues/aroma_logo-jpg_202088_original?1527825595","medium_url":"https://s3.burpple.com/venues/aroma_logo-jpg_202088_medium?1527825595","small_url":"https://s3.burpple.com/venues/aroma_logo-jpg_202088_small?1527825595"}},{"id":199579,"name":"The Dark Gallery (Millenia Walk)","formatted_price":"~$10/pax","beyond_partner":true,"open_now":true,"location":{"city":"Singapore","country":"Singapore","state":"","street":"9 Raffles Boulevard","address_2":"#01-K5 Millenia Walk","zipcode":"039596","latitude":1.2922572,"longitude":103.8597696,"neighbourhood":"Millenia Walk"},"avatar":{"url":"https://s3.burpple.com/venues/the_dark_gallery_logo-png_199579_original?1529041618","medium_url":"https://s3.burpple.com/venues/the_dark_gallery_logo-png_199579_medium?1529041618","small_url":"https://s3.burpple.com/venues/the_dark_gallery_logo-png_199579_small?1529041618"}},{"id":193578,"name":"Porta","formatted_price":"~$25/pax","beyond_partner":true,"open_now":true,"location":{"city":"Singapore","country":"Singapore","state":"","street":"1 Unity Street","address_2":"Level 1 Park Hotel Clarke Quay","zipcode":"237983","latitude":1.2917459,"longitude":103.8424633,"neighbourhood":"Clarke Quay"},"avatar":{"url":"https://s3.burpple.com/venues/porta_logo-png_193578_original?1527827687","medium_url":"https://s3.burpple.com/venues/porta_logo-png_193578_medium?1527827687","small_url":"https://s3.burpple.com/venues/porta_logo-png_193578_small?1527827687"}},{"id":198325,"name":"Blue Jasmine (Park Hotel Farrer Park)","formatted_price":"~$40/pax","beyond_partner":true,"open_now":true,"location":{"city":"Singapore","country":"Singapore","state":"","street":"10 Farrer Park Station Road","address_2":"Level 5 Park Hotel Farrer Park","zipcode":"217564","latitude":1.3120391,"longitude":103.8546362,"neighbourhood":"Farrer Park"},"avatar":{"url":"https://s3.burpple.com/venues/blue_jasmine_logo-jpg_198325_original?1527826419","medium_url":"https://s3.burpple.com/venues/blue_jasmine_logo-jpg_198325_medium?1527826419","small_url":"https://s3.burpple.com/venues/blue_jasmine_logo-jpg_198325_small?1527826419"}},{"id":180095,"name":"Chir Chir Fusion Chicken Factory (ChinaTown Point)","formatted_price":"~$30/pax","beyond_partner":true,"open_now":true,"location":{"city":"Singapore","country":"Singapore","state":"","street":"133 New Bridge Road","address_2":"#01-43 ChinaTown Point","zipcode":"059413","latitude":1.2858168,"longitude":103.84506,"neighbourhood":"Chinatown"},"avatar":{"url":"https://s3.burpple.com/venues/10168091_1567245393511937_7730151677617404808_n-jpg_180095_original?1527669657","medium_url":"https://s3.burpple.com/venues/10168091_1567245393511937_7730151677617404808_n-jpg_180095_medium?1527669657","small_url":"https://s3.burpple.com/venues/10168091_1567245393511937_7730151677617404808_n-jpg_180095_small?1527669657"}},{"id":206913,"name":"The Hungry Caveman","formatted_price":"~$20/pax","beyond_partner":true,"open_now":true,"location":{"city":"Singapore","country":"Singapore","state":"","street":"181 Orchard Road","address_2":"#06-25 Orchard Central","zipcode":"238896","latitude":1.3007405,"longitude":103.8396503,"neighbourhood":"Somerset"},"avatar":{"url":"https://s3.burpple.com/venues/29793522_796910553831508_7867612468242022400_n-jpg_206913_original?1527747465","medium_url":"https://s3.burpple.com/venues/29793522_796910553831508_7867612468242022400_n-jpg_206913_medium?1527747465","small_url":"https://s3.burpple.com/venues/29793522_796910553831508_7867612468242022400_n-jpg_206913_small?1527747465"}},{"id":5581,"name":"Mookata Traditional Thai BBQ (Katong)","formatted_price":"~$25/pax","beyond_partner":true,"open_now":true,"location":{"city":"Singapore","country":"Singapore","state":"","street":"103 East Coast Road","address_2":"","zipcode":"428797","latitude":1.3056536,"longitude":103.9043086,"neighbourhood":"Marine Parade"},"avatar":{"url":"https://s3.burpple.com/venues/mookata_logo-jpg_5581_original?1527827269","medium_url":"https://s3.burpple.com/venues/mookata_logo-jpg_5581_medium?1527827269","small_url":"https://s3.burpple.com/venues/mookata_logo-jpg_5581_small?1527827269"}},{"id":207270,"name":"Kogane Yama (Jem)","formatted_price":"~$15/pax","beyond_partner":true,"open_now":true,"location":{"city":"Singapore","country":"Singapore","state":"","street":"50 Jurong Gateway Road","address_2":"#01-16 Jem","zipcode":"608549","latitude":1.3331285,"longitude":103.7433417,"neighbourhood":"Jurong East"},"avatar":{"url":"https://s3.burpple.com/venues/18891897_1772064386155966_5458065835978048979_o-jpg_207270_original?1527669841","medium_url":"https://s3.burpple.com/venues/18891897_1772064386155966_5458065835978048979_o-jpg_207270_medium?1527669841","small_url":"https://s3.burpple.com/venues/18891897_1772064386155966_5458065835978048979_o-jpg_207270_small?1527669841"}},{"id":38984,"name":"Indian Curry House (Bukit Timah)","formatted_price":"~$20/pax","beyond_partner":true,"open_now":true,"location":{"city":"Singapore","country":"Singapore","state":"","street":"805 Bukit Timah Road","address_2":"#01-03 Sixth Avenue Centre","zipcode":"279883","latitude":1.331426,"longitude":103.794983,"neighbourhood":"Bukit Timah"},"avatar":{"url":"https://s3.burpple.com/venues/525527_385874878102514_586576066_n-jpg_38984_original?1527840396","medium_url":"https://s3.burpple.com/venues/525527_385874878102514_586576066_n-jpg_38984_medium?1527840396","small_url":"https://s3.burpple.com/venues/525527_385874878102514_586576066_n-jpg_38984_small?1527840396"}},{"id":198202,"name":"Masizzim (Westgate)","formatted_price":"~$30/pax","beyond_partner":true,"open_now":true,"location":{"city":"Singapore","country":"Singapore","state":"","street":"3 Gateway Drive","address_2":"#01-07 Westgate","zipcode":"608532","latitude":1.3343302,"longitude":103.7428132,"neighbourhood":"Jurong East"},"avatar":{"url":"https://s3.burpple.com/venues/11898553_1612240645704692_2880319044005610411_n-jpg_198202_original?1527669767","medium_url":"https://s3.burpple.com/venues/11898553_1612240645704692_2880319044005610411_n-jpg_198202_medium?1527669767","small_url":"https://s3.burpple.com/venues/11898553_1612240645704692_2880319044005610411_n-jpg_198202_small?1527669767"}},{"id":208095,"name":"BAIT","formatted_price":null,"beyond_partner":true,"open_now":true,"location":{"city":"Singapore","country":"Singapore","state":"","street":"73 Bussorah Street","address_2":"","zipcode":"199486","latitude":1.300873,"longitude":103.8600315,"neighbourhood":"Bugis"},"avatar":{"url":"https://s3.burpple.com/venues/bait_logo-jpg_208095_original?1527826928","medium_url":"https://s3.burpple.com/venues/bait_logo-jpg_208095_medium?1527826928","small_url":"https://s3.burpple.com/venues/bait_logo-jpg_208095_small?1527826928"}},{"id":191290,"name":"Chir Chir Fusion Chicken Factory (Bugis Junction)","formatted_price":"~$30/pax","beyond_partner":true,"open_now":true,"location":{"city":"Singapore","country":"Singapore","state":"","street":"200 Victoria Street","address_2":"#02-50 Bugis Junction","zipcode":"188021","latitude":1.2996125,"longitude":103.8556033,"neighbourhood":"Bugis"},"avatar":{"url":"https://s3.burpple.com/venues/10168091_1567245393511937_7730151677617404808_n-jpg_191290_original?1527669632","medium_url":"https://s3.burpple.com/venues/10168091_1567245393511937_7730151677617404808_n-jpg_191290_medium?1527669632","small_url":"https://s3.burpple.com/venues/10168091_1567245393511937_7730151677617404808_n-jpg_191290_small?1527669632"}},{"id":171635,"name":"Mookata Traditional Thai BBQ (ORTO)","formatted_price":"~$25/pax","beyond_partner":true,"open_now":true,"location":{"city":"Singapore","country":"Singapore","state":"","street":"81 Lorong Chencharu","address_2":"#01-04 ORTO","zipcode":"769198","latitude":1.4130099,"longitude":103.8295419,"neighbourhood":"Yishun"},"avatar":{"url":"https://s3.burpple.com/venues/mookata_logo-jpg_171635_original?1527827253","medium_url":"https://s3.burpple.com/venues/mookata_logo-jpg_171635_medium?1527827253","small_url":"https://s3.burpple.com/venues/mookata_logo-jpg_171635_small?1527827253"}},{"id":204465,"name":"The Best Brew","formatted_price":"~$35/pax","beyond_partner":true,"open_now":true,"location":{"city":"Singapore","country":"Singapore","state":"","street":"382 Havelock Road","address_2":"Level 1 Four Points by Sheraton Singapore, Riverview","zipcode":"169629","latitude":1.2893671,"longitude":103.8366962,"neighbourhood":"Robertson Quay"},"avatar":{"url":"https://s3.burpple.com/venues/bblogoblack-png_204465_original?1529049057","medium_url":"https://s3.burpple.com/venues/bblogoblack-png_204465_medium?1529049057","small_url":"https://s3.burpple.com/venues/bblogoblack-png_204465_small?1529049057"}},{"id":178103,"name":"Aura","formatted_price":"~$55/pax","beyond_partner":true,"open_now":true,"location":{"city":"Singapore","country":"Singapore","state":"","street":"1 St Andrew's Road","address_2":"#05-03 and #06-02 National Gallery Singapore","zipcode":"178957","latitude":1.2908195,"longitude":103.8519716,"neighbourhood":"City Hall"},"avatar":{"url":"https://s3.burpple.com/venues/aura_logo-png_178103_original?1527825933","medium_url":"https://s3.burpple.com/venues/aura_logo-png_178103_medium?1527825933","small_url":"https://s3.burpple.com/venues/aura_logo-png_178103_small?1527825933"}},{"id":208215,"name":"Canjob Taproom","formatted_price":"~$20/pax","beyond_partner":true,"open_now":true,"location":{"city":"Singapore","country":"Singapore","state":"","street":"50 Tiong Bahru Road ","address_2":"#01-03 Link Hotel","zipcode":"168733","latitude":1.2848831,"longitude":103.8342835,"neighbourhood":"Tiong Bahru"},"avatar":{"url":"https://s3.burpple.com/venues/canjob_taproom_logo-jpg_208215_original?1527826543","medium_url":"https://s3.burpple.com/venues/canjob_taproom_logo-jpg_208215_medium?1527826543","small_url":"https://s3.burpple.com/venues/canjob_taproom_logo-jpg_208215_small?1527826543"}},{"id":191680,"name":"Sugarhaus (Serene Centre)","formatted_price":"~$10/pax","beyond_partner":true,"open_now":true,"location":{"city":"Singapore","country":"Singapore","state":"","street":"10 Jalan Serene","address_2":"#01-03A Serene Centre","zipcode":"258748","latitude":1.3226018,"longitude":103.8136977,"neighbourhood":"Bukit Timah"},"avatar":{"url":"https://s3.burpple.com/venues/sugarhaus_logo-png_191680_original?1527827988","medium_url":"https://s3.burpple.com/venues/sugarhaus_logo-png_191680_medium?1527827988","small_url":"https://s3.burpple.com/venues/sugarhaus_logo-png_191680_small?1527827988"}},{"id":203738,"name":"Zamza","formatted_price":"~$10/pax","beyond_partner":true,"open_now":true,"location":{"city":"Singapore","country":"Singapore","state":"","street":"38 Sultan Gate","address_2":"#01-01 FOMO","zipcode":"198486","latitude":1.3015636,"longitude":103.8607435,"neighbourhood":"Bugis"},"avatar":{"url":"https://s3.burpple.com/venues/24129460_168955257030179_7058947556285617334_n-jpg_203738_original?1528078906","medium_url":"https://s3.burpple.com/venues/24129460_168955257030179_7058947556285617334_n-jpg_203738_medium?1528078906","small_url":"https://s3.burpple.com/venues/24129460_168955257030179_7058947556285617334_n-jpg_203738_small?1528078906"}},{"id":17219,"name":"Hai Xian Lao 海鲜捞","formatted_price":"~$35/pax","beyond_partner":true,"open_now":true,"location":{"city":"Singapore","country":"Singapore","state":"","street":"8 Wilkie Road","address_2":"#01-21","zipcode":"228095","latitude":1.302102,"longitude":103.849615,"neighbourhood":"Dhoby Ghaut"},"avatar":{"url":"https://s3.burpple.com/venues/hxl_logohres-jpg_17219_original?1479801752","medium_url":"https://s3.burpple.com/venues/hxl_logohres-jpg_17219_medium?1479801752","small_url":"https://s3.burpple.com/venues/hxl_logohres-jpg_17219_small?1479801752"}},{"id":202036,"name":"Urban Mix (One Raffles Place)","formatted_price":"~$10/pax","beyond_partner":true,"open_now":true,"location":{"city":"Singapore","country":"Singapore","state":"","street":"1 Raffles Place","address_2":"#B1-01A One Raffles Place","zipcode":"048616","latitude":1.2840848,"longitude":103.8510307,"neighbourhood":"Raffles Place"},"avatar":{"url":"https://s3.burpple.com/venues/20229352_308782889587198_9000205517073482370_n-jpg_202036_original?1527668511","medium_url":"https://s3.burpple.com/venues/20229352_308782889587198_9000205517073482370_n-jpg_202036_medium?1527668511","small_url":"https://s3.burpple.com/venues/20229352_308782889587198_9000205517073482370_n-jpg_202036_small?1527668511"}},{"id":202830,"name":"aRoma (Plaza Singapura)","formatted_price":"~$5/pax","beyond_partner":true,"open_now":true,"location":{"city":"Singapore","country":"Singapore","state":"","street":"68 Orchard Road","address_2":"#B1-32 Plaza Singapura","zipcode":"238839","latitude":1.3007914,"longitude":103.8449976,"neighbourhood":"Dhoby Ghaut"},"avatar":{"url":"https://s3.burpple.com/venues/aroma_logo-jpg_202830_original?1527825580","medium_url":"https://s3.burpple.com/venues/aroma_logo-jpg_202830_medium?1527825580","small_url":"https://s3.burpple.com/venues/aroma_logo-jpg_202830_small?1527825580"}},{"id":176483,"name":"Twenty Grammes (Ang Mo Kio)","formatted_price":"~$20/pax","beyond_partner":true,"open_now":true,"location":{"city":"Singapore","country":"Singapore","state":"","street":"529 Ang Mo Kio Avenue 10","address_2":"#01-2353","zipcode":"560529","latitude":1.3724942,"longitude":103.8558479,"neighbourhood":"Ang Mo Kio"},"avatar":{"url":"https://s3.burpple.com/venues/twenty_grammes_logo-png_176483_original?1527828388","medium_url":"https://s3.burpple.com/venues/twenty_grammes_logo-png_176483_medium?1527828388","small_url":"https://s3.burpple.com/venues/twenty_grammes_logo-png_176483_small?1527828388"}},{"id":204400,"name":"Seven & Ate","formatted_price":"~$20/pax","beyond_partner":true,"open_now":true,"location":{"city":"Singapore","country":"Singapore","state":"","street":"78 Horne Road","address_2":"","zipcode":"209078","latitude":1.310634,"longitude":103.86065,"neighbourhood":"Jalan Besar"},"avatar":{"url":"https://s3.burpple.com/venues/image1-jpeg_204400_original?1528887267","medium_url":"https://s3.burpple.com/venues/image1-jpeg_204400_medium?1528887267","small_url":"https://s3.burpple.com/venues/image1-jpeg_204400_small?1528887267"}},{"id":205161,"name":"Moosh Softserve","formatted_price":"~$5/pax","beyond_partner":true,"open_now":false,"location":{"city":"Singapore","country":"Singapore","state":"","street":"44 Haji Lane","address_2":"","zipcode":"189237","latitude":1.3008789,"longitude":103.859057,"neighbourhood":"Bugis"},"avatar":{"url":"https://s3.burpple.com/venues/moosh_logo-jpg_205161_original?1527827427","medium_url":"https://s3.burpple.com/venues/moosh_logo-jpg_205161_medium?1527827427","small_url":"https://s3.burpple.com/venues/moosh_logo-jpg_205161_small?1527827427"}},{"id":198632,"name":"Kogane Yama (Bugis Junction)","formatted_price":"~$15/pax","beyond_partner":true,"open_now":true,"location":{"city":"Singapore","country":"Singapore","state":"","street":"200 Victoria Street","address_2":"#02-50 Bugis Junction","zipcode":"188021","latitude":1.2995988,"longitude":103.8556781,"neighbourhood":"Bugis"},"avatar":{"url":"https://s3.burpple.com/venues/18891897_1772064386155966_5458065835978048979_o-jpg_198632_original?1527669849","medium_url":"https://s3.burpple.com/venues/18891897_1772064386155966_5458065835978048979_o-jpg_198632_medium?1527669849","small_url":"https://s3.burpple.com/venues/18891897_1772064386155966_5458065835978048979_o-jpg_198632_small?1527669849"}},{"id":206103,"name":"DePizza ","formatted_price":"~$20/pax","beyond_partner":true,"open_now":true,"location":{"city":"Singapore","country":"Singapore","state":"","street":"35A Boat Quay","address_2":"","zipcode":"049824","latitude":1.2863031,"longitude":103.8496754,"neighbourhood":"Raffles Place"},"avatar":{"url":"https://s3.burpple.com/venues/depizza_logo_fa_colour-jpg_206103_original?1523800260","medium_url":"https://s3.burpple.com/venues/depizza_logo_fa_colour-jpg_206103_medium?1523800260","small_url":"https://s3.burpple.com/venues/depizza_logo_fa_colour-jpg_206103_small?1523800260"}},{"id":186695,"name":"Kyushu Pancake Café","formatted_price":"~$20/pax","beyond_partner":true,"open_now":true,"location":{"city":"Singapore","country":"Singapore","state":"","street":"275 Thomson Road","address_2":"#01-08 Novena Regency","zipcode":"307645","latitude":1.3215188,"longitude":103.8415165,"neighbourhood":"Novena"},"avatar":{"url":"https://s3.burpple.com/venues/logo-gif_186695_original?1528452606","medium_url":"https://s3.burpple.com/venues/logo-gif_186695_medium?1528452606","small_url":"https://s3.burpple.com/venues/logo-gif_186695_small?1528452606"}},{"id":200950,"name":"Scaled by Ah Hua Kelong","formatted_price":"~$60/pax","beyond_partner":true,"open_now":true,"location":{"city":"Singapore","country":"Singapore","state":"","street":"55 Haji Lane","address_2":"","zipcode":"189248","latitude":1.301223,"longitude":103.858607,"neighbourhood":"Bugis"},"avatar":{"url":"https://s3.burpple.com/venues/screen_shot_2018-06-14_at_11-09-02_am-png_200950_original?1528946007","medium_url":"https://s3.burpple.com/venues/screen_shot_2018-06-14_at_11-09-02_am-png_200950_medium?1528946007","small_url":"https://s3.burpple.com/venues/screen_shot_2018-06-14_at_11-09-02_am-png_200950_small?1528946007"}},{"id":206235,"name":"Sugarhaus (Tampines 1)","formatted_price":"~$10/pax","beyond_partner":true,"open_now":true,"location":{"city":"Singapore","country":"Singapore","state":"","street":"10 Tampines Central 1","address_2":"#01-31 Tampines 1","zipcode":"","latitude":1.354212,"longitude":103.9450352,"neighbourhood":"Tampines"},"avatar":{"url":"https://s3.burpple.com/venues/sugarhaus_logo-png_206235_original?1527827967","medium_url":"https://s3.burpple.com/venues/sugarhaus_logo-png_206235_medium?1527827967","small_url":"https://s3.burpple.com/venues/sugarhaus_logo-png_206235_small?1527827967"}},{"id":201266,"name":"Tokyo Joe","formatted_price":"~$25/pax","beyond_partner":true,"open_now":true,"location":{"city":"Singapore","country":"Singapore","state":"","street":"2 Science Park Drive","address_2":"#01-24 Savourworld","zipcode":"118222","latitude":1.2914966,"longitude":103.7844139,"neighbourhood":"Kent Ridge"},"avatar":{"url":"https://s3.burpple.com/venues/tokyo_joe_logo-jpg_201266_original?1527828368","medium_url":"https://s3.burpple.com/venues/tokyo_joe_logo-jpg_201266_medium?1527828368","small_url":"https://s3.burpple.com/venues/tokyo_joe_logo-jpg_201266_small?1527828368"}},{"id":176555,"name":"Tenkaichi Yakiniku Restaurant","formatted_price":"~$70/pax","beyond_partner":true,"open_now":true,"location":{"city":"Singapore","country":"Singapore","state":"","street":"6 Raffles Boulevard","address_2":"#03-129 Marina Square","zipcode":"039594","latitude":1.2905705,"longitude":103.8572935,"neighbourhood":"Esplanade"},"avatar":{"url":"https://s3.burpple.com/venues/tenkachi_logo-jpg_176555_original?1509531557","medium_url":"https://s3.burpple.com/venues/tenkachi_logo-jpg_176555_medium?1509531557","small_url":"https://s3.burpple.com/venues/tenkachi_logo-jpg_176555_small?1509531557"}},{"id":202327,"name":"Glasshouse by DHM","formatted_price":"~$30/pax","beyond_partner":true,"open_now":true,"location":{"city":"Singapore","country":"Singapore","state":"","street":"260 Orchard Road","address_2":"#01-40/#02-03 Robinsons The Heeren","zipcode":"238855","latitude":1.302351,"longitude":103.83739,"neighbourhood":"Somerset"},"avatar":{"url":"https://s3.burpple.com/venues/glasshouselogo_3by3-jpg_202327_original?1528950174","medium_url":"https://s3.burpple.com/venues/glasshouselogo_3by3-jpg_202327_medium?1528950174","small_url":"https://s3.burpple.com/venues/glasshouselogo_3by3-jpg_202327_small?1528950174"}},{"id":1202,"name":"Forlino","formatted_price":"~$100/pax","beyond_partner":true,"open_now":true,"location":{"city":"Singapore","country":"Singapore","state":"","street":"1 Fullerton Road","address_2":"#02-06 One Fullerton","zipcode":"049213","latitude":1.286057,"longitude":103.854132,"neighbourhood":"Raffles Place"},"avatar":{"url":"https://s3.burpple.com/venues/forlino_logo_-web-png_1202_original?1528950200","medium_url":"https://s3.burpple.com/venues/forlino_logo_-web-png_1202_medium?1528950200","small_url":"https://s3.burpple.com/venues/forlino_logo_-web-png_1202_small?1528950200"}},{"id":10941,"name":"Sabio Tapas Bar","formatted_price":"~$60/pax","beyond_partner":true,"open_now":true,"location":{"city":"Singapore","country":"Singapore","state":"","street":"5 Duxton Hill","address_2":"","zipcode":"089591","latitude":1.2793376,"longitude":103.8429197,"neighbourhood":"Tanjong Pagar"},"avatar":{"url":"https://s3.burpple.com/venues/sabio_logo-png_10941_original?1528950247","medium_url":"https://s3.burpple.com/venues/sabio_logo-png_10941_medium?1528950247","small_url":"https://s3.burpple.com/venues/sabio_logo-png_10941_small?1528950247"}},{"id":197114,"name":"Brine","formatted_price":"~$25/pax","beyond_partner":true,"open_now":true,"location":{"city":"Singapore","country":"Singapore","state":"","street":"775 North Bridge Road","address_2":"Hotel Clover","zipcode":"198743","latitude":1.303569,"longitude":103.859761,"neighbourhood":"Bugis"},"avatar":{"url":"https://s3.burpple.com/venues/brine_logo-jpg_197114_original?1529381948","medium_url":"https://s3.burpple.com/venues/brine_logo-jpg_197114_medium?1529381948","small_url":"https://s3.burpple.com/venues/brine_logo-jpg_197114_small?1529381948"}},{"id":164317,"name":"Saturday House","formatted_price":null,"beyond_partner":true,"open_now":true,"location":{"city":"Singapore","country":"Singapore","state":"","street":"339 Upper Paya Lebar Road","address_2":"","zipcode":"534953","latitude":1.3453428,"longitude":103.8812885,"neighbourhood":"Serangoon"},"avatar":{"url":"https://s3.burpple.com/venues/saturday_house_logo-jpg_164317_original?1527827730","medium_url":"https://s3.burpple.com/venues/saturday_house_logo-jpg_164317_medium?1527827730","small_url":"https://s3.burpple.com/venues/saturday_house_logo-jpg_164317_small?1527827730"}},{"id":173766,"name":"Mookata Traditional Thai BBQ (Bugis Junction) ","formatted_price":"~$25/pax","beyond_partner":true,"open_now":true,"location":{"city":"Singapore","country":"Singapore","state":"","street":"200 Victoria Street","address_2":"#02-53 Bugis Junction","zipcode":"188021","latitude":1.2987772,"longitude":103.8556667,"neighbourhood":"Bugis"},"avatar":{"url":"https://s3.burpple.com/venues/mookata_logo-jpg_173766_original?1527827235","medium_url":"https://s3.burpple.com/venues/mookata_logo-jpg_173766_medium?1527827235","small_url":"https://s3.burpple.com/venues/mookata_logo-jpg_173766_small?1527827235"}},{"id":202633,"name":"Stirling Steaks","formatted_price":"~$35/pax","beyond_partner":true,"open_now":true,"location":{"city":"Singapore","country":"Singapore","state":"","street":"43 East Coast Road","address_2":"","zipcode":"428764","latitude":1.304863,"longitude":103.903023,"neighbourhood":"Marine Parade"},"avatar":{"url":"https://s3.burpple.com/venues/stirling_steaks_logo-png_202633_original?1527827912","medium_url":"https://s3.burpple.com/venues/stirling_steaks_logo-png_202633_medium?1527827912","small_url":"https://s3.burpple.com/venues/stirling_steaks_logo-png_202633_small?1527827912"}},{"id":187040,"name":"KOOKS Creamery (Serangoon)","formatted_price":"~$10/pax","beyond_partner":true,"open_now":true,"location":{"city":"Singapore","country":"Singapore","state":"","street":"211 Serangoon Avenue 4","address_2":"#01-02","zipcode":"550211","latitude":1.3563532,"longitude":103.8732142,"neighbourhood":"Serangoon"},"avatar":{"url":"https://s3.burpple.com/venues/kooks_logo-jpg_187040_original?1527827110","medium_url":"https://s3.burpple.com/venues/kooks_logo-jpg_187040_medium?1527827110","small_url":"https://s3.burpple.com/venues/kooks_logo-jpg_187040_small?1527827110"}},{"id":118842,"name":"Tiffany Café & Restaurant","formatted_price":"~$65/pax","beyond_partner":true,"open_now":true,"location":{"city":"Singapore","country":"Singapore","state":"","street":"60 Eu Tong Sen Street","address_2":"Furama City Centre","zipcode":"059804","latitude":1.2864652,"longitude":103.8447817,"neighbourhood":"Chinatown"},"avatar":{"url":"https://s3.burpple.com/venues/tiffanycafe_logo-png_118842_original?1526545543","medium_url":"https://s3.burpple.com/venues/tiffanycafe_logo-png_118842_medium?1526545543","small_url":"https://s3.burpple.com/venues/tiffanycafe_logo-png_118842_small?1526545543"}},{"id":172863,"name":"WANTON Seng's Noodle Bar","formatted_price":"~$20/pax","beyond_partner":true,"open_now":true,"location":{"city":"Singapore","country":"Singapore","state":"","street":"52 Amoy Street","address_2":"","zipcode":"069878","latitude":1.2801431,"longitude":103.8467801,"neighbourhood":"Tanjong Pagar"},"avatar":{"url":"https://s3.burpple.com/venues/wanton-logo-png_172863_original?1458627327","medium_url":"https://s3.burpple.com/venues/wanton-logo-png_172863_medium?1458627327","small_url":"https://s3.burpple.com/venues/wanton-logo-png_172863_small?1458627327"}},{"id":110946,"name":"Working Title - Burger Bar","formatted_price":"~$25/pax","beyond_partner":true,"open_now":true,"location":{"city":"Singapore","country":"Singapore","state":"","street":"48 Arab Street","address_2":"","zipcode":"199745","latitude":1.3007893,"longitude":103.8596406,"neighbourhood":"Bugis"},"avatar":{"url":"https://s3.burpple.com/venues/working_title_burger_bar_fb-jpg_110946_original?1449371757","medium_url":"https://s3.burpple.com/venues/working_title_burger_bar_fb-jpg_110946_medium?1449371757","small_url":"https://s3.burpple.com/venues/working_title_burger_bar_fb-jpg_110946_small?1449371757"}},{"id":201049,"name":"Fat Belly","formatted_price":"~$30/pax","beyond_partner":true,"open_now":true,"location":{"city":"Singapore","country":"Singapore","state":"","street":"10 Jalan Serene","address_2":"#01-04 Serene Centre","zipcode":"258748","latitude":1.3226937,"longitude":103.8136882,"neighbourhood":"Bukit Timah"},"avatar":{"url":"https://s3.burpple.com/venues/fat_belly_logo-png_201049_original?1527826692","medium_url":"https://s3.burpple.com/venues/fat_belly_logo-png_201049_medium?1527826692","small_url":"https://s3.burpple.com/venues/fat_belly_logo-png_201049_small?1527826692"}},{"id":199181,"name":"Yellow Cab Pizza Co.","formatted_price":"~$20/pax","beyond_partner":true,"open_now":true,"location":{"city":"Singapore","country":"Singapore","state":"","street":"1 Raffles Link","address_2":"#B1-01/02 CityLink Mall","zipcode":"039393","latitude":1.292021,"longitude":103.8557744,"neighbourhood":"City Hall"},"avatar":{"url":"https://s3.burpple.com/venues/17814232_281934772256772_4638921734106223318_o-jpg_199181_original?1527844093","medium_url":"https://s3.burpple.com/venues/17814232_281934772256772_4638921734106223318_o-jpg_199181_medium?1527844093","small_url":"https://s3.burpple.com/venues/17814232_281934772256772_4638921734106223318_o-jpg_199181_small?1527844093"}},{"id":197485,"name":"Nesuto","formatted_price":"~$15/pax","beyond_partner":true,"open_now":true,"location":{"city":"Singapore","country":"Singapore","state":"","street":"53 Tras Street","address_2":"#01-01","zipcode":"078992","latitude":1.2780034,"longitude":103.8444617,"neighbourhood":"Tanjong Pagar"},"avatar":{"url":"https://s3.burpple.com/venues/nesuto_logo-02-jpg_197485_original?1509805249","medium_url":"https://s3.burpple.com/venues/nesuto_logo-02-jpg_197485_medium?1509805249","small_url":"https://s3.burpple.com/venues/nesuto_logo-02-jpg_197485_small?1509805249"}},{"id":204914,"name":"Founder Bak Kut Teh (Jurong Point)","formatted_price":"~$10/pax","beyond_partner":true,"open_now":true,"location":{"city":"Singapore","country":"Singapore","state":"","street":"63 Jurong West Central 3","address_2":"#03-105 Jurong Point","zipcode":"648331","latitude":1.3400468,"longitude":103.7062271,"neighbourhood":"Boon Lay"},"avatar":{"url":"https://s3.burpple.com/venues/fbkt_logo-jpg_204914_original?1527819699","medium_url":"https://s3.burpple.com/venues/fbkt_logo-jpg_204914_medium?1527819699","small_url":"https://s3.burpple.com/venues/fbkt_logo-jpg_204914_small?1527819699"}},{"id":161965,"name":"Twenty Grammes (Bugis)","formatted_price":"~$15/pax","beyond_partner":true,"open_now":true,"location":{"city":"Singapore","country":"Singapore","state":"","street":"753 North Bridge Road","address_2":"#01-01","zipcode":"198721","latitude":1.303306,"longitude":103.859299,"neighbourhood":"Bugis"},"avatar":{"url":"https://s3.burpple.com/venues/twenty_grammes_logo-png_161965_original?1527828408","medium_url":"https://s3.burpple.com/venues/twenty_grammes_logo-png_161965_medium?1527828408","small_url":"https://s3.burpple.com/venues/twenty_grammes_logo-png_161965_small?1527828408"}},{"id":153590,"name":"GastroSmiths","formatted_price":null,"beyond_partner":true,"open_now":true,"location":{"city":"Singapore","country":"Singapore","state":"","street":"112 East Coast Road","address_2":"#03-06 I12 Katong","zipcode":"428802","latitude":1.3052339,"longitude":103.9050464,"neighbourhood":"Marine Parade"},"avatar":{"url":"https://s3.burpple.com/venues/10453339_1465436903698668_4731300583797692079_n-png_153590_original?1410749560","medium_url":"https://s3.burpple.com/venues/10453339_1465436903698668_4731300583797692079_n-png_153590_medium?1410749560","small_url":"https://s3.burpple.com/venues/10453339_1465436903698668_4731300583797692079_n-png_153590_small?1410749560"}},{"id":204717,"name":"Wildfire Chicken & Burgers (Savourworld)","formatted_price":"~$20/pax","beyond_partner":true,"open_now":true,"location":{"city":"Singapore","country":"Singapore","state":"","street":"2 Science Park Drive","address_2":"#01-17 Savourworld","zipcode":"118222 ","latitude":1.2906655,"longitude":103.7849502,"neighbourhood":"Kent Ridge"},"avatar":{"url":"https://s3.burpple.com/venues/20264886_1344550035663874_1317568926994506977_n-jpg_204717_original?1528078927","medium_url":"https://s3.burpple.com/venues/20264886_1344550035663874_1317568926994506977_n-jpg_204717_medium?1528078927","small_url":"https://s3.burpple.com/venues/20264886_1344550035663874_1317568926994506977_n-jpg_204717_small?1528078927"}},{"id":165705,"name":"JIN Fine Dining","formatted_price":"~$100/pax","beyond_partner":true,"open_now":true,"location":{"city":"Singapore","country":"Singapore","state":"","street":"76 Telok Ayer Street","address_2":"#01-02 Far East Square","zipcode":"048464","latitude":1.2829118,"longitude":103.8487344,"neighbourhood":"Raffles Place"},"avatar":{"url":"https://s3.burpple.com/venues/jin_fine-jpg_165705_original?1526631070","medium_url":"https://s3.burpple.com/venues/jin_fine-jpg_165705_medium?1526631070","small_url":"https://s3.burpple.com/venues/jin_fine-jpg_165705_small?1526631070"}},{"id":176505,"name":"Masizzim (313@Somerset)","formatted_price":"~$30/pax","beyond_partner":true,"open_now":true,"location":{"city":"Singapore","country":"Singapore","state":"","street":"313 Orchard Road","address_2":"#B3-02 313@Somerset","zipcode":"238895","latitude":1.3012586,"longitude":103.8385606,"neighbourhood":"Somerset"},"avatar":{"url":"https://s3.burpple.com/venues/11898553_1612240645704692_2880319044005610411_n-jpg_176505_original?1527669781","medium_url":"https://s3.burpple.com/venues/11898553_1612240645704692_2880319044005610411_n-jpg_176505_medium?1527669781","small_url":"https://s3.burpple.com/venues/11898553_1612240645704692_2880319044005610411_n-jpg_176505_small?1527669781"}},{"id":180229,"name":"Wildfire Chicken & Burgers (313@Somerset)","formatted_price":"~$30/pax","beyond_partner":true,"open_now":true,"location":{"city":"Singapore","country":"Singapore","state":"","street":"313 Orchard Road","address_2":"#01-28 313@Somerset","zipcode":"238895","latitude":1.3010596,"longitude":103.8382886,"neighbourhood":"Somerset"},"avatar":{"url":"https://s3.burpple.com/venues/20264886_1344550035663874_1317568926994506977_n-jpg_180229_original?1528078943","medium_url":"https://s3.burpple.com/venues/20264886_1344550035663874_1317568926994506977_n-jpg_180229_medium?1528078943","small_url":"https://s3.burpple.com/venues/20264886_1344550035663874_1317568926994506977_n-jpg_180229_small?1528078943"}},{"id":204243,"name":"The Great Mischief","formatted_price":"~$25/pax","beyond_partner":true,"open_now":true,"location":{"city":"Singapore","country":"Singapore","state":"","street":"30 Madras Street","address_2":"","zipcode":"208423","latitude":1.304996,"longitude":103.852935,"neighbourhood":"Little India"},"avatar":{"url":"https://s3.burpple.com/venues/the_great_mischief_logo-jpg_204243_original?1527828273","medium_url":"https://s3.burpple.com/venues/the_great_mischief_logo-jpg_204243_medium?1527828273","small_url":"https://s3.burpple.com/venues/the_great_mischief_logo-jpg_204243_small?1527828273"}},{"id":202523,"name":"Tempura Tenten","formatted_price":"~$20/pax","beyond_partner":true,"open_now":true,"location":{"city":"Singapore","country":"Singapore","state":"","street":"252 North Bridge Road","address_2":"#B1-13 Raffles City","zipcode":"179103","latitude":1.2939468,"longitude":103.8533486,"neighbourhood":"City Hall"},"avatar":{"url":"https://s3.burpple.com/venues/tempura_tenten-jpg_202523_original?1528792278","medium_url":"https://s3.burpple.com/venues/tempura_tenten-jpg_202523_medium?1528792278","small_url":"https://s3.burpple.com/venues/tempura_tenten-jpg_202523_small?1528792278"}},{"id":203423,"name":"Real Thai (Raffles City)","formatted_price":"~$15/pax","beyond_partner":true,"open_now":true,"location":{"city":"Singapore","country":"Singapore","state":"","street":"252 North Bridge Road","address_2":"#B1-44F Raffles City","zipcode":"179103","latitude":1.2939468,"longitude":103.8533486,"neighbourhood":"City Hall"},"avatar":{"url":"https://s3.burpple.com/venues/logo_png-png_203423_original?1528957173","medium_url":"https://s3.burpple.com/venues/logo_png-png_203423_medium?1528957173","small_url":"https://s3.burpple.com/venues/logo_png-png_203423_small?1528957173"}},{"id":204354,"name":"Tan Yu 探鱼","formatted_price":"~$35/pax","beyond_partner":true,"open_now":true,"location":{"city":"Singapore","country":"Singapore","state":"","street":"313 Orchard Road","address_2":"#B3-30/31/32 313@Somerset","zipcode":"238895","latitude":1.300828,"longitude":103.83847,"neighbourhood":"Somerset"},"avatar":{"url":"https://s3.burpple.com/venues/lgogogo-jpg_204354_original?1529309948","medium_url":"https://s3.burpple.com/venues/lgogogo-jpg_204354_medium?1529309948","small_url":"https://s3.burpple.com/venues/lgogogo-jpg_204354_small?1529309948"}},{"id":208586,"name":"Stirling Grill","formatted_price":"~$25/pax","beyond_partner":true,"open_now":true,"location":{"city":"Singapore","country":"Singapore","state":"","street":"115 East Coast Road","address_2":"","zipcode":"428804","latitude":1.3057916,"longitude":103.9045334,"neighbourhood":"Katong"},"avatar":{"url":"https://s3.burpple.com/venues/stirling_grill_logo-jpg_208586_original?1529047787","medium_url":"https://s3.burpple.com/venues/stirling_grill_logo-jpg_208586_medium?1529047787","small_url":"https://s3.burpple.com/venues/stirling_grill_logo-jpg_208586_small?1529047787"}},{"id":208585,"name":"Moustachio","formatted_price":null,"beyond_partner":true,"open_now":true,"location":{"city":"Singapore","country":"Singapore","state":"","street":"23 Cuppage Road","address_2":"","zipcode":"229453","latitude":1.301676,"longitude":103.8401411,"neighbourhood":"Orchard"},"avatar":{"url":"https://s3.burpple.com/venues/moustachio_logo-jpg_208585_original?1527827462","medium_url":"https://s3.burpple.com/venues/moustachio_logo-jpg_208585_medium?1527827462","small_url":"https://s3.burpple.com/venues/moustachio_logo-jpg_208585_small?1527827462"}},{"id":208583,"name":"The Ceylonese Affair (Wild Market)","formatted_price":"~$10/pax","beyond_partner":true,"open_now":true,"location":{"city":"Singapore","country":"Singapore","state":"","street":"100 Beach Road","address_2":"#01-27 Shaw Towers Wild Market","zipcode":"189702","latitude":1.2965124,"longitude":103.8568162,"neighbourhood":"Bugis"},"avatar":{"url":"https://s3.burpple.com/venues/tca_logo-png_208583_original?1528786211","medium_url":"https://s3.burpple.com/venues/tca_logo-png_208583_medium?1528786211","small_url":"https://s3.burpple.com/venues/tca_logo-png_208583_small?1528786211"}},{"id":176448,"name":"Som Tam","formatted_price":"~$20/pax","beyond_partner":true,"open_now":true,"location":{"city":"Singapore","country":"Singapore","state":"","street":"181 Orchard Road","address_2":"#08-13 Orchard Central","zipcode":"238896","latitude":1.3008014,"longitude":103.8391625,"neighbourhood":"Somerset"},"avatar":{"url":"https://s3.burpple.com/venues/som_tam_logo-jpg_176448_original?1504836186","medium_url":"https://s3.burpple.com/venues/som_tam_logo-jpg_176448_medium?1504836186","small_url":"https://s3.burpple.com/venues/som_tam_logo-jpg_176448_small?1504836186"}},{"id":191015,"name":"Talay Kata","formatted_price":"~$35/pax","beyond_partner":true,"open_now":true,"location":{"city":"Singapore","country":"Singapore","state":"","street":"181 Orchard Road","address_2":"#08-04/05 Orchard Central","zipcode":"238896","latitude":1.3008671,"longitude":103.8396085,"neighbourhood":"Somerset"},"avatar":{"url":"https://s3.burpple.com/venues/talay_kata-png_191015_original?1532684842","medium_url":"https://s3.burpple.com/venues/talay_kata-png_191015_medium?1532684842","small_url":"https://s3.burpple.com/venues/talay_kata-png_191015_small?1532684842"}},{"id":205681,"name":"Umi Nami","formatted_price":"~$15/pax","beyond_partner":true,"open_now":true,"location":{"city":"Singapore","country":"Singapore","state":"","street":"8 Lorong Mambong","address_2":"","zipcode":"277674","latitude":1.311102,"longitude":103.795151,"neighbourhood":"Holland"},"avatar":{"url":"https://s3.burpple.com/venues/26168880_398512047271747_1971589823479694324_n-jpg_205681_original?1531920050","medium_url":"https://s3.burpple.com/venues/26168880_398512047271747_1971589823479694324_n-jpg_205681_medium?1531920050","small_url":"https://s3.burpple.com/venues/26168880_398512047271747_1971589823479694324_n-jpg_205681_small?1531920050"}},{"id":135352,"name":"Pietro Ristorante Italiano","formatted_price":"~$30/pax","beyond_partner":true,"open_now":true,"location":{"city":"Singapore","country":"Singapore","state":null,"street":"12 Jalan Kelulut","address_2":"","zipcode":"809030","latitude":1.3832418,"longitude":103.8760785,"neighbourhood":"Ang Mo Kio"},"avatar":{"url":"https://s3.burpple.com/venues/pietro_logo-jpg_135352_original?1533089002","medium_url":"https://s3.burpple.com/venues/pietro_logo-jpg_135352_medium?1533089002","small_url":"https://s3.burpple.com/venues/pietro_logo-jpg_135352_small?1533089002"}},{"id":204960,"name":"Ice Edge Cafe & Bar (Downtown East)","formatted_price":"~$20/pax","beyond_partner":true,"open_now":true,"location":{"city":"Singapore","country":"Singapore","state":"","street":"1 Pasir Ris Close","address_2":"#02-333 Downtown East E!Avenue","zipcode":"519599","latitude":1.3792453,"longitude":103.955064,"neighbourhood":"Pasir Ris"},"avatar":{"url":"https://s3.burpple.com/venues/23519177_1921364867881654_1484332291349902691_n-jpg_204960_original?1532936952","medium_url":"https://s3.burpple.com/venues/23519177_1921364867881654_1484332291349902691_n-jpg_204960_medium?1532936952","small_url":"https://s3.burpple.com/venues/23519177_1921364867881654_1484332291349902691_n-jpg_204960_small?1532936952"}},{"id":4178,"name":"Ice Edge Cafe (Kovan)","formatted_price":"~$20/pax","beyond_partner":true,"open_now":true,"location":{"city":"Singapore","country":"Singapore","state":"","street":"2 Kovan Road","address_2":"#01-10 Simon Plaza","zipcode":"548008","latitude":1.3621309,"longitude":103.8852061,"neighbourhood":"Kovan"},"avatar":{"url":"https://s3.burpple.com/venues/ice_edge_cafe-png_4178_original?1532936849","medium_url":"https://s3.burpple.com/venues/ice_edge_cafe-png_4178_medium?1532936849","small_url":"https://s3.burpple.com/venues/ice_edge_cafe-png_4178_small?1532936849"}},{"id":164888,"name":"Chapter 55","formatted_price":"~$30/pax","beyond_partner":true,"open_now":true,"location":{"city":"Singapore","country":"Singapore","state":"","street":"55 Tiong Bahru Road","address_2":"#01-37","zipcode":"160055","latitude":1.2841761,"longitude":103.8343811,"neighbourhood":"Tiong Bahru"},"avatar":{"url":"https://s3.burpple.com/venues/chapter_55_logo-jpg_164888_original?1532936727","medium_url":"https://s3.burpple.com/venues/chapter_55_logo-jpg_164888_medium?1532936727","small_url":"https://s3.burpple.com/venues/chapter_55_logo-jpg_164888_small?1532936727"}},{"id":179289,"name":"Gin Khao Bistro (Quayside Isle)","formatted_price":"~$20/pax","beyond_partner":true,"open_now":true,"location":{"city":"Singapore","country":"Singapore","state":null,"street":"31 Ocean Way","address_2":"#01-12 Quayside Isle","zipcode":"098375","latitude":1.2469933,"longitude":103.8422044,"neighbourhood":"Sentosa"},"avatar":{"url":"https://s3.burpple.com/venues/gin_khao_logo-png_179289_original?1533109375","medium_url":"https://s3.burpple.com/venues/gin_khao_logo-png_179289_medium?1533109375","small_url":"https://s3.burpple.com/venues/gin_khao_logo-png_179289_small?1533109375"}}]}