[{"id":164979,"name":"5 Little Monkeys Cafe","formatted_price":"~$15/pax","newly_added":true,"time_first_added":1537283181743,"removed":false,"location":{"longitude":103.8650975,"latitude":1.3098178,"neighbourhood":"Kallang"}},{"id":202386,"name":"52 Sandwich Shack","formatted_price":"~$10/pax","newly_added":false,"time_first_added":1530264888496,"removed":false,"location":{"longitude":103.8533486,"latitude":1.2939468,"neighbourhood":"City Hall"}},{"id":211170,"name":"78 Alkofelic","formatted_price":"~$20/pax","newly_added":false,"time_first_added":1535794174918,"removed":false,"location":{"longitude":103.8549956,"latitude":1.2966975,"neighbourhood":"Bras Basah"}},{"id":191112,"name":"8 Korean BBQ (Shaw Centre)","formatted_price":"~$35/pax","newly_added":false,"time_first_added":1530264888495,"removed":false,"location":{"longitude":103.8317248,"latitude":1.3062164,"neighbourhood":"Orchard"}},{"id":170844,"name":"Afterwit - Mexican Taqueira","formatted_price":"~$25/pax","newly_added":false,"time_first_added":1530264888495,"removed":false,"location":{"longitude":103.859986,"latitude":1.303471,"neighbourhood":"Bugis"}},{"id":208004,"name":"Al Borgo (Namly)","formatted_price":"~$40/pax","newly_added":false,"time_first_added":1530264888495,"removed":false,"location":{"longitude":103.7999822,"latitude":1.3259884,"neighbourhood":"Bukit Timah"}},{"id":163645,"name":"Andersen's of Denmark Ice Cream (Jurong Point)","formatted_price":"~$10/pax","newly_added":false,"time_first_added":1535539100141,"removed":false,"location":{"longitude":103.7067504,"latitude":1.3394478,"neighbourhood":"Boon Lay"}},{"id":210559,"name":"Andersen's of Denmark Ice Cream (Waterway Point)","formatted_price":"~$10/pax","newly_added":false,"time_first_added":1535539100141,"removed":false,"location":{"longitude":103.9027148,"latitude":1.407154,"neighbourhood":"Punggol"}},{"id":7074,"name":"Andersen's of Denmark Ice Cream (nex)","formatted_price":"~$10/pax","newly_added":false,"time_first_added":1535539100141,"removed":false,"location":{"longitude":103.8721383,"latitude":1.3510231,"neighbourhood":"Serangoon"}},{"id":194276,"name":"Atmastel","formatted_price":"~$50/pax","newly_added":false,"time_first_added":1530264888495,"removed":false,"location":{"longitude":103.855595,"latitude":1.294295,"neighbourhood":"City Hall"}},{"id":178103,"name":"Aura","formatted_price":"~$55/pax","newly_added":false,"time_first_added":1530264888496,"removed":false,"location":{"longitude":103.8519716,"latitude":1.2908195,"neighbourhood":"City Hall"}},{"id":208095,"name":"BAIT","formatted_price":"~$28/pax","newly_added":false,"time_first_added":1530264888496,"removed":false,"location":{"longitude":103.8600315,"latitude":1.300873,"neighbourhood":"Bugis"}},{"id":205966,"name":"BAOBAO","formatted_price":"~$10/pax","newly_added":false,"time_first_added":1534529517078,"removed":false,"location":{"longitude":103.8555479,"latitude":1.2988597,"neighbourhood":"Bugis"}},{"id":211617,"name":"Baek Jung Korean Restaurant & Bar","formatted_price":"~$40/pax","newly_added":false,"time_first_added":1535794174918,"removed":false,"location":{"longitude":103.8466527,"latitude":1.2829558,"neighbourhood":"Telok Ayer"}},{"id":2004,"name":"Bakery & Bar","formatted_price":"~$10/pax","newly_added":false,"time_first_added":1534242130981,"removed":false,"location":{"longitude":103.8482226,"latitude":1.2820534,"neighbourhood":"Telok Ayer"}},{"id":208949,"name":"Benjamin Barker Cafe","formatted_price":"~$25/pax","newly_added":false,"time_first_added":1530264888496,"removed":false,"location":{"longitude":103.8363441,"latitude":1.301527,"neighbourhood":"Somerset"}},{"id":204999,"name":"Bistro Duo","formatted_price":"~$20/pax","newly_added":false,"time_first_added":1534529517078,"removed":false,"location":{"longitude":103.8573119,"latitude":1.29994,"neighbourhood":"Bugis"}},{"id":198325,"name":"Blue Jasmine (Park Hotel Farrer Park)","formatted_price":"~$40/pax","newly_added":false,"time_first_added":1530264888496,"removed":false,"location":{"longitude":103.8546362,"latitude":1.3120391,"neighbourhood":"Farrer Park"}},{"id":204622,"name":"Brew & Bar","formatted_price":"~$20/pax","newly_added":false,"time_first_added":1532331630478,"removed":false,"location":{"longitude":103.9480522,"latitude":1.3336012,"neighbourhood":"Tanah Merah"}},{"id":197114,"name":"Brine","formatted_price":"~$25/pax","newly_added":false,"time_first_added":1530264888510,"removed":false,"location":{"longitude":103.859761,"latitude":1.303569,"neighbourhood":"Bugis"}},{"id":169935,"name":"British Indian Curry Hut","formatted_price":"~$20/pax","newly_added":false,"time_first_added":1530264888495,"removed":false,"location":{"longitude":103.7947156,"latitude":1.3117305,"neighbourhood":"Holland"}},{"id":200812,"name":"Butcher Boy","formatted_price":"~$50/pax","newly_added":false,"time_first_added":1536308963588,"removed":false,"location":{"longitude":103.8414845,"latitude":1.2800182,"neighbourhood":"Outram Park"}},{"id":110431,"name":"Cafe Salivation","formatted_price":"~$17/pax","newly_added":false,"time_first_added":1533196047813,"removed":false,"location":{"longitude":103.8528647,"latitude":1.3109207,"neighbourhood":"Little India"}},{"id":190467,"name":"Caffè Vergnano 1882","formatted_price":"~$20/pax","newly_added":true,"time_first_added":1536826457900,"removed":false,"location":{"longitude":103.855719,"latitude":1.294002,"neighbourhood":"City Hall"}},{"id":210436,"name":"Cali (Changi)","formatted_price":"~$30/pax","newly_added":false,"time_first_added":1535986807539,"removed":false,"location":{"longitude":103.963121,"latitude":1.3359198,"neighbourhood":"Tampines"}},{"id":4312,"name":"Cali (Rochester)","formatted_price":"~$30/pax","newly_added":false,"time_first_added":1536055458027,"removed":false,"location":{"longitude":103.7892144,"latitude":1.3052096,"neighbourhood":"Buona Vista"}},{"id":208215,"name":"Canjob Taproom","formatted_price":"~$20/pax","newly_added":false,"time_first_added":1530264888496,"removed":false,"location":{"longitude":103.8342835,"latitude":1.2848831,"neighbourhood":"Tiong Bahru"}},{"id":155165,"name":"Casa Roma","formatted_price":"~$25/pax","newly_added":false,"time_first_added":1535367884465,"removed":false,"location":{"longitude":103.7940303,"latitude":1.3317316,"neighbourhood":"Bukit Timah"}},{"id":164888,"name":"Chapter 55","formatted_price":"~$30/pax","newly_added":false,"time_first_added":1533091443216,"removed":false,"location":{"longitude":103.8343811,"latitude":1.2841761,"neighbourhood":"Tiong Bahru"}},{"id":136924,"name":"Char (Jalan Besar)","formatted_price":"~$20/pax","newly_added":false,"time_first_added":1530264888495,"removed":false,"location":{"longitude":103.8595535,"latitude":1.3126673,"neighbourhood":"Farrer Park"}},{"id":210063,"name":"Chillas","formatted_price":"~$15/pax","newly_added":false,"time_first_added":1530264888495,"removed":false,"location":{"longitude":103.7879161,"latitude":1.299559,"neighbourhood":"One North"}},{"id":166968,"name":"Chir Chir Fusion Chicken Factory (313@Somerset)","formatted_price":"~$30/pax","newly_added":false,"time_first_added":1530264888495,"removed":false,"location":{"longitude":103.838154,"latitude":1.301313,"neighbourhood":"Somerset"}},{"id":191290,"name":"Chir Chir Fusion Chicken Factory (Bugis Junction)","formatted_price":"~$30/pax","newly_added":false,"time_first_added":1530264888496,"removed":false,"location":{"longitude":103.8556033,"latitude":1.2996125,"neighbourhood":"Bugis"}},{"id":180095,"name":"Chir Chir Fusion Chicken Factory (ChinaTown Point)","formatted_price":"~$30/pax","newly_added":false,"time_first_added":1530264888496,"removed":false,"location":{"longitude":103.84506,"latitude":1.2858168,"neighbourhood":"Chinatown"}},{"id":189348,"name":"Chir Chir Fusion Chicken Factory (Jem)","formatted_price":"~$30/pax","newly_added":false,"time_first_added":1530264888495,"removed":false,"location":{"longitude":103.7432702,"latitude":1.3335963,"neighbourhood":"Jurong East"}},{"id":148261,"name":"City Hot Pot Shabu Shabu","formatted_price":"~$30/pax","newly_added":false,"time_first_added":1534170898775,"removed":false,"location":{"longitude":103.8511589,"latitude":1.2838349,"neighbourhood":"Raffles Place"}},{"id":196059,"name":"Corner Bar L'Operetta","formatted_price":"~$40/pax","newly_added":false,"time_first_added":1535986807539,"removed":false,"location":{"longitude":103.84815,"latitude":1.281452,"neighbourhood":"Telok Ayer"}},{"id":210018,"name":"Crab in Da Bag ","formatted_price":"~$50/pax","newly_added":false,"time_first_added":1530264888495,"removed":false,"location":{"longitude":103.8265241,"latitude":1.3069012,"neighbourhood":"Orchard"}},{"id":183514,"name":"Creamier (Gillman Barracks)","formatted_price":"~$5/pax","newly_added":false,"time_first_added":1530264888495,"removed":false,"location":{"longitude":103.803944,"latitude":1.277505,"neighbourhood":"Alexandra"}},{"id":202081,"name":"Creamier (Tiong Bahru)","formatted_price":"~$5/pax","newly_added":false,"time_first_added":1530264888495,"removed":false,"location":{"longitude":103.830248,"latitude":1.283044,"neighbourhood":"Tiong Bahru"}},{"id":1321,"name":"Creamier (Toa Payoh)","formatted_price":"~$5/pax","newly_added":false,"time_first_added":1530264888495,"removed":false,"location":{"longitude":103.8444058,"latitude":1.3379959,"neighbourhood":"Toa Payoh"}},{"id":206103,"name":"DePizza ","formatted_price":"~$20/pax","newly_added":false,"time_first_added":1530264888510,"removed":false,"location":{"longitude":103.8496754,"latitude":1.2863031,"neighbourhood":"Raffles Place"}},{"id":150337,"name":"Dean & DeLuca (Far East Square)","formatted_price":"~$30/pax","newly_added":false,"time_first_added":1535367884465,"removed":false,"location":{"longitude":103.8487938,"latitude":1.2829039,"neighbourhood":"Raffles Place"}},{"id":161184,"name":"Dean & DeLuca (HillV2)","formatted_price":"~$30/pax","newly_added":false,"time_first_added":1535367884465,"removed":false,"location":{"longitude":103.7642255,"latitude":1.3627303,"neighbourhood":"Bukit Batok"}},{"id":8848,"name":"Dean & DeLuca (Orchard Central)","formatted_price":"~$30/pax","newly_added":false,"time_first_added":1535367884465,"removed":false,"location":{"longitude":103.8401905,"latitude":1.300671,"neighbourhood":"Somerset"}},{"id":211120,"name":"Dopa Dopa Creamery","formatted_price":"~$5/pax","newly_added":true,"time_first_added":1536826457900,"removed":false,"location":{"longitude":103.8486113,"latitude":1.2878003,"neighbourhood":"Raffles Place"}},{"id":167004,"name":"Dosirak","formatted_price":"~$15/pax","newly_added":false,"time_first_added":1536125669668,"removed":false,"location":{"longitude":103.8492862,"latitude":1.2780442,"neighbourhood":"Tanjong Pagar"}},{"id":208256,"name":"Farms & Fables","formatted_price":"~$20/pax","newly_added":false,"time_first_added":1530264888495,"removed":false,"location":{"longitude":103.7849502,"latitude":1.2906655,"neighbourhood":"Kent Ridge"}},{"id":201049,"name":"Fat Belly","formatted_price":"~$30/pax","newly_added":false,"time_first_added":1530264888511,"removed":false,"location":{"longitude":103.8136882,"latitude":1.3226937,"neighbourhood":"Bukit Timah"}},{"id":196295,"name":"Firebake - Woodfired Bakehouse & Restaurant","formatted_price":"~$50/pax","newly_added":false,"time_first_added":1530264888495,"removed":false,"location":{"longitude":103.9075305,"latitude":1.3077162,"neighbourhood":"Marine Parade"}},{"id":211763,"name":"Foodcoholic ","formatted_price":"~$15/pax","newly_added":false,"time_first_added":1536308963588,"removed":false,"location":{"longitude":103.84914,"latitude":1.2864334,"neighbourhood":"Raffles Place"}},{"id":1202,"name":"Forlino","formatted_price":"~$100/pax","newly_added":false,"time_first_added":1530264888510,"removed":false,"location":{"longitude":103.854132,"latitude":1.286057,"neighbourhood":"Raffles Place"}},{"id":201302,"name":"Founder Bak Kut Teh (Bugis)","formatted_price":"~$10/pax","newly_added":false,"time_first_added":1530264888495,"removed":false,"location":{"longitude":103.8559329,"latitude":1.298958,"neighbourhood":"Bugis"}},{"id":188564,"name":"Four Points Eatery (Four Points by Sheraton Singapore, Riverview)","formatted_price":"~$60/pax","newly_added":false,"time_first_added":1530264888495,"removed":false,"location":{"longitude":103.836658,"latitude":1.2891728,"neighbourhood":"Outram Park"}},{"id":165206,"name":"Froth","formatted_price":"~$30/pax","newly_added":false,"time_first_added":1530264888495,"removed":false,"location":{"longitude":103.8516656,"latitude":1.2819782,"neighbourhood":"Raffles Place"}},{"id":153590,"name":"GastroSmiths","formatted_price":"~$25/pax","newly_added":false,"time_first_added":1530264888511,"removed":false,"location":{"longitude":103.9050464,"latitude":1.3052339,"neighbourhood":"Marine Parade"}},{"id":100642,"name":"Gem Bar","formatted_price":"~$25/pax","newly_added":false,"time_first_added":1530264888495,"removed":false,"location":{"longitude":103.8454703,"latitude":1.2814135,"neighbourhood":"Tanjong Pagar"}},{"id":179289,"name":"Gin Khao Bistro (Quayside Isle)","formatted_price":"~$20/pax","newly_added":false,"time_first_added":1533125213632,"removed":false,"location":{"longitude":103.8422044,"latitude":1.2469933,"neighbourhood":"Sentosa"}},{"id":211442,"name":"Ginger Thai","formatted_price":"~$20/pax","newly_added":false,"time_first_added":1535367884465,"removed":false,"location":{"longitude":103.840439,"latitude":1.302202,"neighbourhood":"Somerset"}},{"id":202327,"name":"Glasshouse by DHM","formatted_price":"~$30/pax","newly_added":false,"time_first_added":1530264888510,"removed":false,"location":{"longitude":103.83739,"latitude":1.302351,"neighbourhood":"Somerset"}},{"id":210833,"name":"Good Time Eat Drink","formatted_price":"~$20/pax","newly_added":false,"time_first_added":1536573087304,"removed":false,"location":{"longitude":103.9239769,"latitude":1.312892,"neighbourhood":"Marine Parade"}},{"id":108941,"name":"Guo Fu Steamboat 国府珍锅","formatted_price":"~$25/pax","newly_added":false,"time_first_added":1530264888495,"removed":false,"location":{"longitude":103.847692,"latitude":1.283678,"neighbourhood":"Raffles Place"}},{"id":203901,"name":"HAFUDOG ","formatted_price":"~$10/pax","newly_added":false,"time_first_added":1530264888495,"removed":false,"location":{"longitude":103.8497276,"latitude":1.2799728,"neighbourhood":"Tanjong Pagar"}},{"id":207181,"name":"HRVST","formatted_price":"~$20/pax","newly_added":false,"time_first_added":1536125669668,"removed":false,"location":{"longitude":103.8485274,"latitude":1.2771468,"neighbourhood":"Tanjong Pagar"}},{"id":17219,"name":"Hai Xian Lao 海鲜捞","formatted_price":"~$35/pax","newly_added":false,"time_first_added":1530264888510,"removed":false,"location":{"longitude":103.849615,"latitude":1.302102,"neighbourhood":"Dhoby Ghaut"}},{"id":208899,"name":"Haritts","formatted_price":"~$5/pax","newly_added":false,"time_first_added":1536308963589,"removed":false,"location":{"longitude":103.8452663,"latitude":1.2871073,"neighbourhood":"Clarke Quay"}},{"id":173535,"name":"Healthy Soba IKI","formatted_price":"~$15/pax","newly_added":false,"time_first_added":1534144689391,"removed":false,"location":{"longitude":103.8510426,"latitude":1.2844523,"neighbourhood":"Raffles Place"}},{"id":61868,"name":"Hooters (Clarke Quay)","formatted_price":"~$35/pax","newly_added":false,"time_first_added":1530264888495,"removed":false,"location":{"longitude":103.8459487,"latitude":1.2899748,"neighbourhood":"Clarke Quay"}},{"id":210561,"name":"HotPot Heroes","formatted_price":"~$30/pax","newly_added":false,"time_first_added":1532192476607,"removed":false,"location":{"longitude":103.896188,"latitude":1.304835,"neighbourhood":"Tanjong Katong"}},{"id":112433,"name":"IZY Dining & Bar","formatted_price":"~$55/pax","newly_added":false,"time_first_added":1534410646014,"removed":false,"location":{"longitude":103.8465431,"latitude":1.2824446,"neighbourhood":"Club Street"}},{"id":204960,"name":"Ice Edge Cafe & Bar (Downtown East)","formatted_price":"~$20/pax","newly_added":false,"time_first_added":1533091443216,"removed":false,"location":{"longitude":103.955064,"latitude":1.3792453,"neighbourhood":"Pasir Ris"}},{"id":4178,"name":"Ice Edge Cafe (Kovan)","formatted_price":"~$20/pax","newly_added":false,"time_first_added":1533091443216,"removed":false,"location":{"longitude":103.8852061,"latitude":1.3621309,"neighbourhood":"Kovan"}},{"id":38984,"name":"Indian Curry House (Bukit Timah)","formatted_price":"~$20/pax","newly_added":false,"time_first_added":1530264888496,"removed":false,"location":{"longitude":103.794983,"latitude":1.331426,"neighbourhood":"Bukit Timah"}},{"id":204495,"name":"IndoChili (Savourworld)","formatted_price":"~$20/pax","newly_added":false,"time_first_added":1530264888495,"removed":false,"location":{"longitude":103.7849502,"latitude":1.2906655,"neighbourhood":"Kent Ridge"}},{"id":30013,"name":"IndoChili (Zion Road)","formatted_price":"~$20/pax","newly_added":false,"time_first_added":1530264888495,"removed":false,"location":{"longitude":103.831197,"latitude":1.292934,"neighbourhood":"River Valley"}},{"id":165705,"name":"JIN Fine Dining","formatted_price":"~$100/pax","newly_added":false,"time_first_added":1530264888511,"removed":false,"location":{"longitude":103.8487344,"latitude":1.2829118,"neighbourhood":"Raffles Place"}},{"id":164886,"name":"Joo Bar","formatted_price":"~$40/pax","newly_added":false,"time_first_added":1530264888495,"removed":false,"location":{"longitude":103.8569103,"latitude":1.2981019,"neighbourhood":"Bugis"}},{"id":187040,"name":"KOOKS Creamery (Serangoon)","formatted_price":"~$10/pax","newly_added":false,"time_first_added":1530264888511,"removed":false,"location":{"longitude":103.8732142,"latitude":1.3563532,"neighbourhood":"Serangoon"}},{"id":20206,"name":"KPO Café Bar","formatted_price":"~$30/pax","newly_added":false,"time_first_added":1530264888495,"removed":false,"location":{"longitude":103.8406515,"latitude":1.300215,"neighbourhood":"Somerset"}},{"id":210084,"name":"Kakuida's","formatted_price":"~$5/pax","newly_added":false,"time_first_added":1535986807539,"removed":false,"location":{"longitude":103.8443917,"latitude":1.2753013,"neighbourhood":"Tanjong Pagar"}},{"id":207535,"name":"Kanpai Izakaya & Bar","formatted_price":"~$25/pax","newly_added":false,"time_first_added":1535539100141,"removed":false,"location":{"longitude":103.794398,"latitude":1.311763,"neighbourhood":"Holland"}},{"id":175513,"name":"Kaw Kaw SG ","formatted_price":"~$20/pax","newly_added":false,"time_first_added":1530264888496,"removed":false,"location":{"longitude":103.861026,"latitude":1.3026293,"neighbourhood":"Bugis"}},{"id":203071,"name":"Kindred Folk","formatted_price":"~$5/pax","newly_added":false,"time_first_added":1530264888495,"removed":false,"location":{"longitude":103.7794608,"latitude":1.3366908,"neighbourhood":"Bukit Timah"}},{"id":8125,"name":"Kintamani Indonesian Restaurant","formatted_price":"~$45/pax","newly_added":false,"time_first_added":1530264888495,"removed":false,"location":{"longitude":103.8359445,"latitude":1.2875625,"neighbourhood":"Outram Park"}},{"id":198632,"name":"Kogane Yama (Bugis Junction)","formatted_price":"~$15/pax","newly_added":false,"time_first_added":1530264888510,"removed":false,"location":{"longitude":103.8556781,"latitude":1.2995988,"neighbourhood":"Bugis"}},{"id":207270,"name":"Kogane Yama (Jem)","formatted_price":"~$15/pax","newly_added":false,"time_first_added":1530264888496,"removed":false,"location":{"longitude":103.7433417,"latitude":1.3331285,"neighbourhood":"Jurong East"}},{"id":29860,"name":"Kopi Tiam (Swissôtel The Stamford)","formatted_price":"~$38/pax","newly_added":false,"time_first_added":1530264888495,"removed":false,"location":{"longitude":103.8534824,"latitude":1.2931519,"neighbourhood":"City Hall"}},{"id":186695,"name":"Kyushu Pancake Café","formatted_price":"~$20/pax","newly_added":false,"time_first_added":1530264888510,"removed":false,"location":{"longitude":103.8415165,"latitude":1.3215188,"neighbourhood":"Novena"}},{"id":211786,"name":"LUX - Alfresco Bar","formatted_price":"~$20/pax","newly_added":false,"time_first_added":1536308963589,"removed":false,"location":{"longitude":103.860112,"latitude":1.300492,"neighbourhood":"Bugis"}},{"id":201796,"name":"Laundry Galley","formatted_price":"~$10/pax","newly_added":false,"time_first_added":1536308963589,"removed":false,"location":{"longitude":103.9541376,"latitude":1.3530631,"neighbourhood":"Tampines"}},{"id":191573,"name":"Little Bastard","formatted_price":"~$45/pax","newly_added":false,"time_first_added":1530264888495,"removed":false,"location":{"longitude":103.8621731,"latitude":1.3106969,"neighbourhood":"Lavender"}},{"id":181635,"name":"Little House of Dreams (Dempsey)","formatted_price":"~$25/pax","newly_added":false,"time_first_added":1530264888495,"removed":false,"location":{"longitude":103.8095057,"latitude":1.3042251,"neighbourhood":"Dempsey"}},{"id":168312,"name":"Long Chim","formatted_price":"~$30/pax","newly_added":false,"time_first_added":1530264888495,"removed":false,"location":{"longitude":103.8593264,"latitude":1.2842303,"neighbourhood":"Marina Bay"}},{"id":187763,"name":"LongQing 隆庆","formatted_price":"~$40/pax","newly_added":false,"time_first_added":1530264888496,"removed":false,"location":{"longitude":103.847254,"latitude":1.287759,"neighbourhood":"Clarke Quay"}},{"id":204887,"name":"MYO restobar","formatted_price":"~$25/pax","newly_added":false,"time_first_added":1530264888495,"removed":false,"location":{"longitude":103.848261,"latitude":1.2784458,"neighbourhood":"Tanjong Pagar"}},{"id":119949,"name":"Madeleine's Original Portuguese Egg Tart & Puff","formatted_price":"~$3/pax","newly_added":false,"time_first_added":1535794174919,"removed":false,"location":{"longitude":103.8950779,"latitude":1.3078399,"neighbourhood":"Katong"}},{"id":202601,"name":"Maru Japanese Restaurant","formatted_price":"~$20/pax","newly_added":false,"time_first_added":1533699720560,"removed":false,"location":{"longitude":103.8444743,"latitude":1.2753422,"neighbourhood":"Tanjong Pagar"}},{"id":176505,"name":"Masizzim (313@Somerset)","formatted_price":"~$30/pax","newly_added":false,"time_first_added":1530264888512,"removed":false,"location":{"longitude":103.8385606,"latitude":1.3012586,"neighbourhood":"Somerset"}},{"id":198202,"name":"Masizzim (Westgate)","formatted_price":"~$30/pax","newly_added":false,"time_first_added":1530264888496,"removed":false,"location":{"longitude":103.7428132,"latitude":1.3343302,"neighbourhood":"Jurong East"}},{"id":209195,"name":"Maxi Coffee Bar","formatted_price":"~$10/pax","newly_added":false,"time_first_added":1531992888495,"removed":false,"location":{"longitude":103.8463802,"latitude":1.282349,"neighbourhood":"Chinatown"}},{"id":204280,"name":"Meatsmith (Little India)","formatted_price":"~$40/pax","newly_added":false,"time_first_added":1534818005336,"removed":false,"location":{"longitude":103.852458,"latitude":1.305333,"neighbourhood":"Little India"}},{"id":168760,"name":"Meatsmith (Telok Ayer)","formatted_price":"~$40/pax","newly_added":false,"time_first_added":1534818005336,"removed":false,"location":{"longitude":103.8474774,"latitude":1.2801244,"neighbourhood":"Tanjong Pagar"}},{"id":4600,"name":"Megumi Japanese Restaurant","formatted_price":"~$30/pax","newly_added":false,"time_first_added":1536573087304,"removed":false,"location":{"longitude":103.9043716,"latitude":1.3069715,"neighbourhood":"Marine Parade"}},{"id":210470,"name":"Monte Carlo Boys","formatted_price":"~$25/pax","newly_added":false,"time_first_added":1530264888495,"removed":false,"location":{"longitude":103.845949,"latitude":1.2823184,"neighbourhood":"Tanjong Pagar"}},{"id":173766,"name":"Mookata Traditional Thai BBQ (Bugis Junction) ","formatted_price":"~$25/pax","newly_added":false,"time_first_added":1530264888511,"removed":false,"location":{"longitude":103.8556667,"latitude":1.2987772,"neighbourhood":"Bugis"}},{"id":5581,"name":"Mookata Traditional Thai BBQ (Katong)","formatted_price":"~$25/pax","newly_added":false,"time_first_added":1530264888496,"removed":false,"location":{"longitude":103.9043086,"latitude":1.3056536,"neighbourhood":"Marine Parade"}},{"id":171635,"name":"Mookata Traditional Thai BBQ (ORTO)","formatted_price":"~$25/pax","newly_added":false,"time_first_added":1530264888496,"removed":false,"location":{"longitude":103.8295419,"latitude":1.4130099,"neighbourhood":"Yishun"}},{"id":205161,"name":"Moosh Softserve","formatted_price":"~$5/pax","newly_added":false,"time_first_added":1530264888510,"removed":false,"location":{"longitude":103.859057,"latitude":1.3008789,"neighbourhood":"Bugis"}},{"id":208585,"name":"Moustachio","formatted_price":"~$20/pax","newly_added":false,"time_first_added":1530264888512,"removed":false,"location":{"longitude":103.8401411,"latitude":1.301676,"neighbourhood":"Orchard"}},{"id":133127,"name":"My Little Tapas Bar ","formatted_price":"~$45/pax","newly_added":false,"time_first_added":1534170898775,"removed":false,"location":{"longitude":103.8455233,"latitude":1.2811538,"neighbourhood":"Tanjong Pagar"}},{"id":185182,"name":"NINJA BOWL","formatted_price":"~$20/pax","newly_added":false,"time_first_added":1530264888495,"removed":false,"location":{"longitude":103.8434239,"latitude":1.2797648,"neighbourhood":"Tanjong Pagar"}},{"id":106814,"name":"NOX - Dine in the Dark","formatted_price":"~$88/pax","newly_added":false,"time_first_added":1536308963589,"removed":false,"location":{"longitude":103.8601671,"latitude":1.3006724,"neighbourhood":"Bugis"}},{"id":206071,"name":"NY Night Market","formatted_price":"~$25/pax","newly_added":false,"time_first_added":1530264888496,"removed":false,"location":{"longitude":103.7428132,"latitude":1.3343302,"neighbourhood":"Jurong East"}},{"id":197485,"name":"Nesuto","formatted_price":"~$15/pax","newly_added":false,"time_first_added":1530264888511,"removed":false,"location":{"longitude":103.8444617,"latitude":1.2780034,"neighbourhood":"Tanjong Pagar"}},{"id":209745,"name":"Nipong Naepong (313@Somerset)","formatted_price":"~$20/pax","newly_added":false,"time_first_added":1534144689397,"removed":false,"location":{"longitude":103.8383822,"latitude":1.3010401,"neighbourhood":"Somerset"}},{"id":206070,"name":"Nipong Naepong (Jem)","formatted_price":"~$20/pax","newly_added":false,"time_first_added":1530264888495,"removed":false,"location":{"longitude":103.7433417,"latitude":1.3331285,"neighbourhood":"Jurong East"}},{"id":210690,"name":"Nooka Modern Thai Cuisine","formatted_price":"~$20/pax","newly_added":false,"time_first_added":1535986807540,"removed":false,"location":{"longitude":103.8579486,"latitude":1.2994679,"neighbourhood":"Bugis"}},{"id":211621,"name":"Ocha Fresh Thai","formatted_price":"~$15/pax","newly_added":false,"time_first_added":1535794174923,"removed":false,"location":{"longitude":103.847414,"latitude":1.278645,"neighbourhood":"Tanjong Pagar"}},{"id":6373,"name":"Original Sin","formatted_price":"~$35/pax","newly_added":true,"time_first_added":1537283181745,"removed":false,"location":{"longitude":103.796542,"latitude":1.311228,"neighbourhood":"Holland"}},{"id":206545,"name":"PLUM & TORO","formatted_price":"~$20/pax","newly_added":false,"time_first_added":1534144765650,"removed":false,"location":{"longitude":103.8386992,"latitude":1.2902512,"neighbourhood":"Robertson Quay"}},{"id":173431,"name":"Park Bench Deli","formatted_price":"~$20/pax","newly_added":false,"time_first_added":1530264888495,"removed":false,"location":{"longitude":103.8473171,"latitude":1.279826,"neighbourhood":"Tanjong Pagar"}},{"id":10,"name":"Paulaner Bräuhaus Singapore","formatted_price":"~$40/pax","newly_added":false,"time_first_added":1530264888495,"removed":false,"location":{"longitude":103.8582883,"latitude":1.2930856,"neighbourhood":"Millenia Walk"}},{"id":210071,"name":"Philosophy Modern Fusion","formatted_price":"~$30/pax","newly_added":false,"time_first_added":1530264888495,"removed":false,"location":{"longitude":103.8416435,"latitude":1.2799909,"neighbourhood":"Tanjong Pagar"}},{"id":210167,"name":"Phoenix Lava (Raffles Xchange)","formatted_price":"~$5/pax","newly_added":true,"time_first_added":1536826457905,"removed":false,"location":{"longitude":103.8520646,"latitude":1.283866,"neighbourhood":"Raffles Place"}},{"id":203546,"name":"Pickleville","formatted_price":"~$10/pax","newly_added":false,"time_first_added":1530264888495,"removed":false,"location":{"longitude":103.8482807,"latitude":1.2783342,"neighbourhood":"Tanjong Pagar"}},{"id":135352,"name":"Pietro Ristorante Italiano","formatted_price":"~$30/pax","newly_added":false,"time_first_added":1533091443216,"removed":false,"location":{"longitude":103.8760785,"latitude":1.3832418,"neighbourhood":"Ang Mo Kio"}},{"id":202374,"name":"Pince & Pints (Katong)","formatted_price":"~$95/pax","newly_added":false,"time_first_added":1536308963593,"removed":false,"location":{"longitude":103.904175,"latitude":1.3055755,"neighbourhood":"Marine Parade"}},{"id":193578,"name":"Porta","formatted_price":"~$25/pax","newly_added":false,"time_first_added":1530264888496,"removed":false,"location":{"longitude":103.8424633,"latitude":1.2917459,"neighbourhood":"Clarke Quay"}},{"id":210021,"name":"Q-WA Izakaya (Beach Road)","formatted_price":"~$30/pax","newly_added":false,"time_first_added":1530264888495,"removed":false,"location":{"longitude":103.8570701,"latitude":1.2978929,"neighbourhood":"Bugis"}},{"id":5016,"name":"Radici Italiane","formatted_price":"~$60/pax","newly_added":false,"time_first_added":1530264888495,"removed":false,"location":{"longitude":103.8440569,"latitude":1.2793644,"neighbourhood":"Tanjong Pagar"}},{"id":95653,"name":"Raj Restaurant (Farrer Park)","formatted_price":"~$20/pax","newly_added":false,"time_first_added":1533196047813,"removed":false,"location":{"longitude":103.8530034,"latitude":1.3108033,"neighbourhood":"Little India"}},{"id":201243,"name":"Randy Indulgence","formatted_price":"~$10/pax","newly_added":false,"time_first_added":1535794174930,"removed":false,"location":{"longitude":103.845998,"latitude":1.277095,"neighbourhood":"Tanjong Pagar"}},{"id":203423,"name":"Real Thai (Raffles City)","formatted_price":"~$15/pax","newly_added":false,"time_first_added":1530264888512,"removed":false,"location":{"longitude":103.8533486,"latitude":1.2939468,"neighbourhood":"City Hall"}},{"id":211214,"name":"Rogue Trader","formatted_price":"~$20/pax","newly_added":false,"time_first_added":1534818005336,"removed":false,"location":{"longitude":103.852458,"latitude":1.305333,"neighbourhood":"Little India"}},{"id":208597,"name":"SG TAPS","formatted_price":"~$15/pax","newly_added":false,"time_first_added":1530264888496,"removed":false,"location":{"longitude":103.8427163,"latitude":1.2791378,"neighbourhood":"Tanjong Pagar"}},{"id":127058,"name":"SONS","formatted_price":"~$25/pax","newly_added":false,"time_first_added":1530264888495,"removed":false,"location":{"longitude":103.8473925,"latitude":1.2841,"neighbourhood":"Raffles Place"}},{"id":39494,"name":"Sabio By The Sea","formatted_price":"~$60/pax","newly_added":false,"time_first_added":1530264888510,"removed":false,"location":{"longitude":103.8422839,"latitude":1.2471626,"neighbourhood":"Sentosa"}},{"id":10941,"name":"Sabio Tapas Bar","formatted_price":"~$60/pax","newly_added":false,"time_first_added":1530264888510,"removed":false,"location":{"longitude":103.8429197,"latitude":1.2793376,"neighbourhood":"Tanjong Pagar"}},{"id":14473,"name":"Salt tapas & bar","formatted_price":"~$40/pax","newly_added":false,"time_first_added":1530264888495,"removed":false,"location":{"longitude":103.853548,"latitude":1.294552,"neighbourhood":"City Hall"}},{"id":198770,"name":"Santap","formatted_price":"~$20/pax","newly_added":false,"time_first_added":1530264888496,"removed":false,"location":{"longitude":103.8528076,"latitude":1.3047445,"neighbourhood":"Little India"}},{"id":164317,"name":"Saturday House","formatted_price":"~$25/pax","newly_added":false,"time_first_added":1530264888511,"removed":false,"location":{"longitude":103.8812885,"latitude":1.3453428,"neighbourhood":"Serangoon"}},{"id":200950,"name":"Scaled by Ah Hua Kelong","formatted_price":"~$60/pax","newly_added":false,"time_first_added":1530264888510,"removed":false,"location":{"longitude":103.858607,"latitude":1.301223,"neighbourhood":"Bugis"}},{"id":208170,"name":"Scissors Paper Stove","formatted_price":"~$25/pax","newly_added":false,"time_first_added":1530264888495,"removed":false,"location":{"longitude":103.876602,"latitude":1.3531237,"neighbourhood":"Serangoon"}},{"id":169527,"name":"Second Storey Cafe Bar","formatted_price":"~$20/pax","newly_added":false,"time_first_added":1533629774204,"removed":false,"location":{"longitude":103.90244,"latitude":1.3045739,"neighbourhood":"Marine Parade"}},{"id":204400,"name":"Seven & Ate","formatted_price":"~$20/pax","newly_added":false,"time_first_added":1530264888510,"removed":false,"location":{"longitude":103.86065,"latitude":1.310634,"neighbourhood":"Jalan Besar"}},{"id":210354,"name":"Shin Minori (Katong Square)","formatted_price":"~$45/pax","newly_added":false,"time_first_added":1530264888495,"removed":false,"location":{"longitude":103.9046567,"latitude":1.3047271,"neighbourhood":"Katong"}},{"id":6629,"name":"Shin Minori (UE Square)","formatted_price":"~$50/pax","newly_added":false,"time_first_added":1530264888495,"removed":false,"location":{"longitude":103.8427375,"latitude":1.2919904,"neighbourhood":"Clarke Quay"}},{"id":192830,"name":"Small Potatoes Ice Creamery (313@Somerset)","formatted_price":"~$5/pax","newly_added":false,"time_first_added":1530264888495,"removed":false,"location":{"longitude":103.8388213,"latitude":1.3003613,"neighbourhood":"Somerset"}},{"id":199948,"name":"Smöoy (Downtown Gallery)","formatted_price":"~$5/pax","newly_added":false,"time_first_added":1536308963595,"removed":false,"location":{"longitude":103.8482644,"latitude":1.2767434,"neighbourhood":"Tanjong Pagar"}},{"id":176448,"name":"Som Tam","formatted_price":"~$20/pax","newly_added":false,"time_first_added":1532837149650,"removed":false,"location":{"longitude":103.8391625,"latitude":1.3008014,"neighbourhood":"Somerset"}},{"id":210888,"name":"Spagtacular","formatted_price":"~$15/pax","newly_added":true,"time_first_added":1536826457906,"removed":false,"location":{"longitude":103.8482615,"latitude":1.2875722,"neighbourhood":"Clarke Quay"}},{"id":208586,"name":"Stirling Steaks (Opp I12 Katong)","formatted_price":"~$25/pax","newly_added":false,"time_first_added":1530264888512,"removed":false,"location":{"longitude":103.9045334,"latitude":1.3057916,"neighbourhood":"Katong"}},{"id":202633,"name":"Stirling Steaks (Opp Katong V)","formatted_price":"~$35/pax","newly_added":false,"time_first_added":1530264888511,"removed":false,"location":{"longitude":103.903023,"latitude":1.304863,"neighbourhood":"Marine Parade"}},{"id":191680,"name":"Sugarhaus (Serene Centre)","formatted_price":"~$10/pax","newly_added":false,"time_first_added":1530264888496,"removed":false,"location":{"longitude":103.8136977,"latitude":1.3226018,"neighbourhood":"Bukit Timah"}},{"id":206235,"name":"Sugarhaus (Tampines 1)","formatted_price":"~$10/pax","newly_added":false,"time_first_added":1530264888510,"removed":false,"location":{"longitude":103.9450352,"latitude":1.354212,"neighbourhood":"Tampines"}},{"id":149405,"name":"Sunday Folks","formatted_price":"~$15/pax","newly_added":false,"time_first_added":1530264888495,"removed":false,"location":{"longitude":103.7968144,"latitude":1.3116938,"neighbourhood":"Holland"}},{"id":202678,"name":"Superfudo","formatted_price":"~$15/pax","newly_added":false,"time_first_added":1530264888495,"removed":false,"location":{"longitude":103.7951847,"latitude":1.3104961,"neighbourhood":"Holland"}},{"id":19034,"name":"Szechuan Court & Kitchen (Fairmont Singapore)","formatted_price":"~$55/pax","newly_added":false,"time_first_added":1530264888496,"removed":false,"location":{"longitude":103.8540579,"latitude":1.2939573,"neighbourhood":"City Hall"}},{"id":191015,"name":"Talay Kata","formatted_price":"~$35/pax","newly_added":false,"time_first_added":1532837149650,"removed":false,"location":{"longitude":103.8396085,"latitude":1.3008671,"neighbourhood":"Somerset"}},{"id":204354,"name":"Tan Yu 探鱼","formatted_price":"~$35/pax","newly_added":false,"time_first_added":1530264888512,"removed":false,"location":{"longitude":103.83847,"latitude":1.300828,"neighbourhood":"Somerset"}},{"id":111690,"name":"Tandoor","formatted_price":"~$45/pax","newly_added":false,"time_first_added":1530264888496,"removed":false,"location":{"longitude":103.8410264,"latitude":1.3023387,"neighbourhood":"Somerset"}},{"id":202523,"name":"Tempura Tenten","formatted_price":"~$20/pax","newly_added":false,"time_first_added":1530264888512,"removed":false,"location":{"longitude":103.8533486,"latitude":1.2939468,"neighbourhood":"City Hall"}},{"id":176555,"name":"Tenkaichi Yakiniku Restaurant","formatted_price":"~$70/pax","newly_added":false,"time_first_added":1530264888510,"removed":false,"location":{"longitude":103.8572935,"latitude":1.2905705,"neighbourhood":"Esplanade"}},{"id":208584,"name":"The Bak Chor Mee Stall (Wild Market)","formatted_price":"~$5/pax","newly_added":false,"time_first_added":1530264888495,"removed":false,"location":{"longitude":103.8568162,"latitude":1.2965124,"neighbourhood":"Bugis"}},{"id":204465,"name":"The Best Brew","formatted_price":"~$35/pax","newly_added":false,"time_first_added":1530264888496,"removed":false,"location":{"longitude":103.8366962,"latitude":1.2893671,"neighbourhood":"Robertson Quay"}},{"id":202814,"name":"The Bettership","formatted_price":"~$20/pax","newly_added":false,"time_first_added":1530264888495,"removed":false,"location":{"longitude":103.8478027,"latitude":1.2993784,"neighbourhood":"Dhoby Ghaut"}},{"id":208583,"name":"The Ceylonese Affair (Wild Market)","formatted_price":"~$10/pax","newly_added":false,"time_first_added":1530264888512,"removed":false,"location":{"longitude":103.8568162,"latitude":1.2965124,"neighbourhood":"Bugis"}},{"id":194065,"name":"The Coffee Academics (Raffles City)","formatted_price":"~$30/pax","newly_added":false,"time_first_added":1530264888495,"removed":false,"location":{"longitude":103.8539237,"latitude":1.2936217,"neighbourhood":"City Hall"}},{"id":179964,"name":"The Coffee Academics (Scotts Square)","formatted_price":"~$30/pax","newly_added":false,"time_first_added":1530264888495,"removed":false,"location":{"longitude":103.8329104,"latitude":1.3060907,"neighbourhood":"Orchard"}},{"id":209460,"name":"The Communal","formatted_price":"~$25/pax","newly_added":false,"time_first_added":1530264888495,"removed":false,"location":{"longitude":103.858887,"latitude":1.307308,"neighbourhood":"Lavender"}},{"id":211161,"name":"The Communal Place","formatted_price":"~$25/pax","newly_added":false,"time_first_added":1535014448897,"removed":false,"location":{"longitude":103.9047474,"latitude":1.3067012,"neighbourhood":"Marine Parade"}},{"id":199579,"name":"The Dark Gallery (Millenia Walk)","formatted_price":"~$10/pax","newly_added":false,"time_first_added":1530264888496,"removed":false,"location":{"longitude":103.8597696,"latitude":1.2922572,"neighbourhood":"Millenia Walk"}},{"id":208168,"name":"The Dark Gallery (Takashimaya)","formatted_price":"~$10/pax","newly_added":false,"time_first_added":1530264888496,"removed":false,"location":{"longitude":103.8341773,"latitude":1.3031884,"neighbourhood":"Orchard"}},{"id":204243,"name":"The Great Mischief","formatted_price":"~$25/pax","newly_added":false,"time_first_added":1530264888512,"removed":false,"location":{"longitude":103.852935,"latitude":1.304996,"neighbourhood":"Little India"}},{"id":206913,"name":"The Hungry Caveman","formatted_price":"~$20/pax","newly_added":false,"time_first_added":1530264888496,"removed":false,"location":{"longitude":103.8396503,"latitude":1.3007405,"neighbourhood":"Somerset"}},{"id":187295,"name":"The Marmalade Pantry (Downtown)","formatted_price":"~$35/pax","newly_added":false,"time_first_added":1535367884465,"removed":false,"location":{"longitude":103.8443605,"latitude":1.2758539,"neighbourhood":"Tanjong Pagar"}},{"id":170334,"name":"The Marmalade Pantry (Novena)","formatted_price":"~$35/pax","newly_added":false,"time_first_added":1535367884465,"removed":false,"location":{"longitude":103.8447969,"latitude":1.3200672,"neighbourhood":"Novena"}},{"id":207698,"name":"The Social Space","formatted_price":"~$15/pax","newly_added":false,"time_first_added":1535986807553,"removed":false,"location":{"longitude":103.8425682,"latitude":1.2805458,"neighbourhood":"Outram Park"}},{"id":7887,"name":"The Square @ Furama","formatted_price":"~$70/pax","newly_added":false,"time_first_added":1530264888495,"removed":false,"location":{"longitude":103.8364239,"latitude":1.287541,"neighbourhood":"Outram Park"}},{"id":208002,"name":"The Stamford Brasserie","formatted_price":"~$20/pax","newly_added":false,"time_first_added":1530264888496,"removed":false,"location":{"longitude":103.8531036,"latitude":1.2933597,"neighbourhood":"City Hall"}},{"id":31283,"name":"The Sushi Bar (Far East Plaza)","formatted_price":"~$35/pax","newly_added":false,"time_first_added":1530264888495,"removed":false,"location":{"longitude":103.833654,"latitude":1.3069762,"neighbourhood":"Orchard"}},{"id":209587,"name":"The Sushi Bar (Tampines 1)","formatted_price":"~$30/pax","newly_added":true,"time_first_added":1537283181750,"removed":false,"location":{"longitude":103.9450352,"latitude":1.354212,"neighbourhood":"Tampines"}},{"id":211287,"name":"The Windmill Cafe and Bar","formatted_price":"~$20/pax","newly_added":false,"time_first_added":1534818005336,"removed":false,"location":{"longitude":103.7952282,"latitude":1.3106827,"neighbourhood":"Holland"}},{"id":118842,"name":"Tiffany Café & Restaurant","formatted_price":"~$65/pax","newly_added":false,"time_first_added":1530264888511,"removed":false,"location":{"longitude":103.8447817,"latitude":1.2864652,"neighbourhood":"Chinatown"}},{"id":201266,"name":"Tokyo Joe","formatted_price":"~$25/pax","newly_added":false,"time_first_added":1530264888510,"removed":false,"location":{"longitude":103.7844139,"latitude":1.2914966,"neighbourhood":"Kent Ridge"}},{"id":121399,"name":"Tolido's Espresso Nook","formatted_price":"~$20/pax","newly_added":false,"time_first_added":1530264888496,"removed":false,"location":{"longitude":103.8608284,"latitude":1.3045459,"neighbourhood":"Lavender"}},{"id":161965,"name":"Twenty Grammes (Bugis)","formatted_price":"~$15/pax","newly_added":false,"time_first_added":1530264888511,"removed":false,"location":{"longitude":103.859299,"latitude":1.303306,"neighbourhood":"Bugis"}},{"id":205681,"name":"Umi Nami","formatted_price":"~$15/pax","newly_added":false,"time_first_added":1532956365845,"removed":false,"location":{"longitude":103.795151,"latitude":1.311102,"neighbourhood":"Holland"}},{"id":203439,"name":"Uni Gallery by OosterBay","formatted_price":"~$40/pax","newly_added":false,"time_first_added":1530264888495,"removed":false,"location":{"longitude":103.8605856,"latitude":1.2998004,"neighbourhood":"Beach Road"}},{"id":201057,"name":"Upside Down Coffee Alternatives","formatted_price":"~$5/pax","newly_added":false,"time_first_added":1530264888495,"removed":false,"location":{"longitude":103.8476225,"latitude":1.2822536,"neighbourhood":"Amoy Street"}},{"id":111213,"name":"Urban Bites","formatted_price":"~$25/pax","newly_added":false,"time_first_added":1530264888495,"removed":false,"location":{"longitude":103.84747,"latitude":1.280292,"neighbourhood":"Tanjong Pagar"}},{"id":202036,"name":"Urban Mix (One Raffles Place)","formatted_price":"~$10/pax","newly_added":false,"time_first_added":1530264888510,"removed":false,"location":{"longitude":103.8510307,"latitude":1.2840848,"neighbourhood":"Raffles Place"}},{"id":9805,"name":"Vanilla Bar & Café","formatted_price":"~$20/pax","newly_added":false,"time_first_added":1535986807554,"removed":false,"location":{"longitude":103.8477577,"latitude":1.2816675,"neighbourhood":"Telok Ayer"}},{"id":178986,"name":"Vatos Urban Tacos (South Beach)","formatted_price":"~$35/pax","newly_added":false,"time_first_added":1530264888495,"removed":false,"location":{"longitude":103.8561785,"latitude":1.2957656,"neighbourhood":"City Hall"}},{"id":172863,"name":"WANTON Seng's Noodle Bar","formatted_price":"~$20/pax","newly_added":false,"time_first_added":1530264888511,"removed":false,"location":{"longitude":103.8467801,"latitude":1.2801431,"neighbourhood":"Tanjong Pagar"}},{"id":173178,"name":"Wafuken (Asia Square)","formatted_price":"~$15/pax","newly_added":false,"time_first_added":1530264888495,"removed":false,"location":{"longitude":103.850951,"latitude":1.2780969,"neighbourhood":"Marina Bay"}},{"id":199681,"name":"Wafuken (Downtown Gallery)","formatted_price":"~$15/pax","newly_added":false,"time_first_added":1530264888495,"removed":false,"location":{"longitude":103.8482644,"latitude":1.2767434,"neighbourhood":"Tanjong Pagar"}},{"id":89222,"name":"Wan He Lou","formatted_price":"~$50/pax","newly_added":false,"time_first_added":1530264888495,"removed":false,"location":{"longitude":103.8581502,"latitude":1.3080155,"neighbourhood":"Jalan Besar"}},{"id":119287,"name":"Wheeler's Yard","formatted_price":"~$25/pax","newly_added":false,"time_first_added":1530264888495,"removed":false,"location":{"longitude":103.852831,"latitude":1.326623,"neighbourhood":"Balestier"}},{"id":194397,"name":"Wild Bar (Wild Market)","formatted_price":"~$25/pax","newly_added":false,"time_first_added":1530264888495,"removed":false,"location":{"longitude":103.8572319,"latitude":1.2959942,"neighbourhood":"Beach Road"}},{"id":180229,"name":"Wildfire Chicken & Burgers (313@Somerset)","formatted_price":"~$30/pax","newly_added":false,"time_first_added":1530264888512,"removed":false,"location":{"longitude":103.8382886,"latitude":1.3010596,"neighbourhood":"Somerset"}},{"id":204717,"name":"Wildfire Chicken & Burgers (Savourworld)","formatted_price":"~$20/pax","newly_added":false,"time_first_added":1530264888511,"removed":false,"location":{"longitude":103.7849502,"latitude":1.2906655,"neighbourhood":"Kent Ridge"}},{"id":55733,"name":"Window on the Park","formatted_price":"~$96/pax","newly_added":false,"time_first_added":1530264888495,"removed":false,"location":{"longitude":103.8410264,"latitude":1.3023387,"neighbourhood":"Somerset"}},{"id":110946,"name":"Working Title - Burger Bar","formatted_price":"~$25/pax","newly_added":false,"time_first_added":1530264888511,"removed":false,"location":{"longitude":103.8596406,"latitude":1.3007893,"neighbourhood":"Bugis"}},{"id":204745,"name":"Xin Divine","formatted_price":"~$100/pax","newly_added":false,"time_first_added":1532331630478,"removed":false,"location":{"longitude":103.8428005,"latitude":1.2791789,"neighbourhood":"Tanjong Pagar"}},{"id":199181,"name":"Yellow Cab Pizza Co.","formatted_price":"~$20/pax","newly_added":false,"time_first_added":1530264888511,"removed":false,"location":{"longitude":103.8557744,"latitude":1.292021,"neighbourhood":"City Hall"}},{"id":145313,"name":"Zui Hong Lou","formatted_price":"~$30/pax","newly_added":false,"time_first_added":1533261760012,"removed":false,"location":{"longitude":103.8455601,"latitude":1.2817713,"neighbourhood":"Tanjong Pagar"}},{"id":202088,"name":"aRoma (Arab Street)","formatted_price":"~$5/pax","newly_added":false,"time_first_added":1530264888496,"removed":false,"location":{"longitude":103.8595349,"latitude":1.30065,"neighbourhood":"Bugis"}},{"id":202830,"name":"aRoma (Plaza Singapura)","formatted_price":"~$5/pax","newly_added":false,"time_first_added":1530264888510,"removed":false,"location":{"longitude":103.8449976,"latitude":1.3007914,"neighbourhood":"Dhoby Ghaut"}},{"id":169250,"name":"fȳr","formatted_price":"~$40/pax","newly_added":false,"time_first_added":1533541867912,"removed":false,"location":{"longitude":103.848423,"latitude":1.28131,"neighbourhood":"Telok Ayer"}},{"id":204914,"name":"Founder Bak Kut Teh (Jurong Point)","formatted_price":"~$10/pax","newly_added":false,"time_first_added":1530264888511,"removed":true,"time_last_removed":1537283181753,"location":{"longitude":103.7062271,"latitude":1.3400468,"neighbourhood":"Boon Lay"}},{"id":176483,"name":"Twenty Grammes (Ang Mo Kio)","formatted_price":"~$20/pax","newly_added":false,"time_first_added":1530264888510,"removed":true,"time_last_removed":1537283181753,"location":{"longitude":103.8558479,"latitude":1.3724942,"neighbourhood":"Ang Mo Kio"}},{"id":211009,"name":"PUJIM","formatted_price":null,"newly_added":false,"time_first_added":1536125669669,"removed":true,"time_last_removed":1536308963610,"location":{"longitude":103.8469171,"latitude":1.2807712,"neighbourhood":"Tanjong Pagar"}},{"id":203738,"name":"Zamza","formatted_price":"~$10/pax","newly_added":false,"time_first_added":1530264888510,"removed":true,"time_last_removed":1534144689402,"location":{"longitude":103.8607435,"latitude":1.3015636,"neighbourhood":"Bugis"}},{"id":207872,"name":"GRAZE by The Backyard Bakers","formatted_price":"~$20/pax","newly_added":false,"time_first_added":1530264888510,"removed":true,"time_last_removed":1532837164085,"location":{"longitude":103.7573965,"latitude":1.3164853,"neighbourhood":"West Coast"}},{"id":199927,"name":"BUNDT by The Backyard Bakers","formatted_price":"~$5/pax","newly_added":false,"time_first_added":1530264888495,"removed":true,"time_last_removed":1532837149653,"location":{"longitude":103.8452663,"latitude":1.2871073,"neighbourhood":"Clarke Quay"}},{"id":208598,"name":"SG TAPS","formatted_price":null,"newly_added":false,"time_first_added":1532620936213,"removed":true,"time_last_removed":1532837149653,"location":{"longitude":103.842599,"latitude":1.278813,"neighbourhood":"Tanjong Pagar"}}]